,ADDRDELIV,LATITUDE,LONGITUDE,neighborhood
34167,3423 NORTH OCTAVIA AVENUE,41.9422331,-87.80905279999998,Dunning
449722,5523 SOUTH UNIVERSITY AVENUE,41.7943211,-87.597818,Hyde Park
506002,11800 SOUTH SANGAMON STREET,41.679434,-87.645899,West Pullman
15552,6536 NORTH GLENWOOD AVENUE,42.0010443,-87.66593,Rogers Park
216109,1839 SOUTH AVERS AVENUE,41.8559338,-87.7208792,North Lawndale
485050,8012 SOUTH MANISTEE AVENUE,41.7495619,-87.55797640000002,South Chicago
515161,9423 SOUTH ADA STREET,41.7224025,-87.65634229999998,Washington Heights
291001,3146 SOUTH PRINCETON AVENUE,41.8367975,-87.63433979999998,Armour Square
168012,2003 WEST GIDDINGS STREET,41.9676729,-87.6794199,Lincoln Square
36074,5736 WEST IRVING PARK ROAD,41.9533865,-87.7708981,Portage Park
545961,1615 WEST WALTER BURLEY GRIFFIN PLACE,41.7037679,-87.6627166,Beverly
513891,9247 SOUTH PRAIRIE AVENUE,41.7259266,-87.617626,Roseland
343694,5311 SOUTH KEATING AVENUE,41.7963153,-87.7413537,Garfield Ridge
79785,3133 NORTH RUTHERFORD AVENUE,41.93735570000001,-87.79414609999998,Montclare
262140,153 NORTH LAPORTE AVENUE,41.88342100000001,-87.7487646,Austin
378702,4331 SOUTH ALBANY AVENUE,41.8144647,-87.70146770000002,Brighton Park
46720,1951 NORTH WHIPPLE STREET,41.9172601,-87.703744,Logan Square
440817,5037 SOUTH PRAIRIE AVENUE,41.8028042,-87.6190837,Grand Boulevard
145426,3811 NORTH KEDZIE AVENUE,41.9506874,-87.707691,Irving Park
372330,3646 WEST 80TH STREET,41.74800379999999,-87.7139686,Ashburn
400142,1614 EAST 84TH PLACE,41.7416826,-87.5845997,Avalon Park
441727,8049 SOUTH CARPENTER STREET,41.7473187,-87.6497085,Auburn Gresham
297395,1000 WEST 15TH STREET,41.8619359,-87.6516065,"Little Italy, UIC"
275063,1476F SOUTH PRAIRIE AVENUE,41.8626344,-87.6215653,Near South Side
479022,542 WEST 45TH STREET,41.812824,-87.640068,New City
183155,2114 NORTH SEMINARY AVENUE,41.9203573,-87.656355,Lincoln Park
317828,3228 SOUTH WALLACE STREET,41.8353869,-87.64162459999999,Bridgeport
380200,5345 SOUTH MOODY AVENUE,41.79484520000001,-87.7755162,Garfield Ridge
139437,2710 WEST NORTH AVENUE,41.910527,-87.6950807,Humboldt Park
479124,8336 SOUTH STONY ISLAND AVENUE,41.7430078,-87.58603559999997,Avalon Park
251008,2430 SOUTH HOMAN AVENUE,41.8471356,-87.71022420000001,Little Village
461004,8401 SOUTH THROOP STREET,41.7412374,-87.6556312,Auburn Gresham
393470,5640 SOUTH NEVA AVENUE,41.788969,-87.8004096,Garfield Ridge
46410,5010 NORTH TROY STREET,41.9724778,-87.7076934,Albany Park
4252,6435 NORTH RICHMOND STREET,41.9985603,-87.70304449999998,West Ridge
247101,2431 WEST RICE STREET,41.8964252,-87.68817890000003,Ukrainian Village
140480,4733 NORTH LOWELL AVENUE,41.9673308,-87.73631929999998,Albany Park
204423,2324 WEST LYNDALE STREET,41.922807,-87.68617900000002,Bucktown
317572,2631 SOUTH HILLOCK AVENUE,41.8448484,-87.6568093,Bridgeport
562398,9534 SOUTH YATES AVENUE,41.7214974,-87.56496240000001,South Deering
383931,5318 WEST 63RD STREET,41.778557,-87.7555132,Clearing
251849,2615 WEST 23RD PLACE,41.8490617,-87.6911621,Little Village
329634,6443 SOUTH ARTESIAN AVENUE,41.7761477,-87.6844886,Chicago Lawn
472512,6721 SOUTH DAMEN AVENUE,41.7713951,-87.6734017,Englewood
457211,1526 WEST 79TH STREET,41.750554,-87.6620687,Auburn Gresham
492803,3325 WEST 110TH STREET,41.6931309,-87.7044425,Mount Greenwood
68151,5065 WEST ADDISON STREET,41.94583170000001,-87.7545213,Portage Park
340460,4032 SOUTH RICHMOND STREET,41.8198784,-87.69867049999998,Brighton Park
526298,1015 WEST 129TH PLACE,41.65811179999999,-87.6467558,West Pullman
164017,3542 NORTH FREMONT STREET,41.9467257,-87.65215909999998,Lake View
235194,1024 SOUTH SPAULDING AVENUE,41.86833920000001,-87.70939849999998,North Lawndale
432925,7348 SOUTH INDIANA AVENUE,41.7605471,-87.6203321,Grand Crossing
249953,2527 SOUTH ALBANY AVENUE,41.8455099,-87.70234640000002,Little Village
38718,4831 NORTH KILPATRICK AVENUE,41.9686948,-87.7450118,Albany Park
33288,3725 NORTH OLCOTT AVENUE,41.947376,-87.8141765,Dunning
520726,9202 SOUTH ASHLAND AVENUE,41.7264333,-87.6632875,Washington Heights
315793,3624 SOUTH LOWE AVENUE,41.828189,-87.6426621,Bridgeport
75533,2412 WEST ARDMORE AVENUE,41.98696870000001,-87.6900666,West Ridge
559398,13112 SOUTH SAINT LAWRENCE AVENUE,41.656951,-87.6078066,Riverdale
84881,5418 NORTH MELVINA AVENUE,41.9799028,-87.7838395,Jefferson Park
156959,6565 WEST BELMONT AVENUE,41.93780020000001,-87.79090040000001,Montclare
403092,7601 SOUTH WESTERN AVENUE,41.755438,-87.682548,Ashburn
392350,6139 WEST 63RD STREET,41.7775778,-87.77547,Clearing
156931,4125 NORTH SAINT LOUIS AVENUE,41.9564483,-87.7151867,Irving Park
118400,3753 NORTH NARRAGANSETT AVENUE,41.9490431,-87.786112,Dunning
101298,2826 NORTH HAMLIN AVENUE,41.9326993,-87.72238259999997,Avondale
462999,8118 SOUTH EBERHART AVENUE,41.746858,-87.6127013,Chatham
174445,5123 NORTH ASHLAND AVENUE,41.9750534,-87.6692738,Uptown
200200,4031 NORTH KENMORE AVENUE,41.9554639,-87.6557438,Uptown
365618,5209 WEST 53RD PLACE,41.7956208,-87.75308249999998,Garfield Ridge
454276,6741 SOUTH GREEN STREET,41.7712278,-87.6455331,Englewood
434195,4440 SOUTH ASHLAND AVENUE,41.81281,-87.665459,New City
467253,7017 SOUTH HONORE STREET,41.7661153,-87.6696407,Englewood
257406,1511 NORTH KILDARE AVENUE,41.9080941,-87.7335484,Humboldt Park
288047,1417 SOUTH PLYMOUTH COURT,41.86345900000001,-87.6281923,Near South Side
150484,5046 NORTH NEW ENGLAND AVENUE,41.9732969,-87.7990892,Norwood Park
547206,9015 SOUTH OGLESBY AVENUE,41.7312464,-87.56677590000002,Calumet Heights
187129,924 WEST MARGATE TERRACE,41.9726848,-87.653586,Uptown
125286,5307 NORTH NATCHEZ AVENUE,41.9777376,-87.7887897,Norwood Park
279998,225 WEST CHICAGO AVENUE,41.8962662,-87.63536500000002,River North
477872,8109 SOUTH ADA STREET,41.7464698,-87.65698540000002,Auburn Gresham
317267,928 SOUTH DAMEN AVENUE,41.8696658,-87.67718070000002,"Little Italy, UIC"
172949,5545 NORTH BROADWAY STREET,41.98314179999999,-87.65969809999999,Edgewater
182775,2322 NORTH SHEFFIELD AVENUE,41.9242907,-87.654092,Sheffield & DePaul
184643,5235 NORTH WINCHESTER AVENUE,41.977125,-87.67772790000002,Lincoln Square
503456,726 EAST 90TH PLACE,41.7304417,-87.60594549999998,Chatham
364454,5926 SOUTH MULLIGAN AVENUE,41.7841943,-87.78058730000002,Clearing
343999,4348 SOUTH WHIPPLE STREET,41.81402410000001,-87.7007686,Brighton Park
455827,7613 SOUTH HERMITAGE AVENUE,41.755317,-87.66690129999998,Auburn Gresham
234530,2732 WEST 26TH STREET,41.8451842,-87.6937242,Little Village
5251,2437 WEST BIRCHWOOD AVENUE,42.0175536,-87.6915948,West Ridge
45794,3201 WEST LAWRENCE AVENUE,41.9682703,-87.70867840000003,Albany Park
347767,5127 SOUTH RICHMOND STREET,41.8001216,-87.69738559999998,Gage Park
334939,7028 SOUTH MAPLEWOOD AVENUE,41.7655851,-87.6872262,Chicago Lawn
254408,3226 WEST ROOSEVELT ROAD,41.8675708,-87.7064497,North Lawndale
83807,5500 WEST CULLOM AVENUE,41.9589246,-87.76491779999998,Portage Park
274482,2601 SOUTH ARCHER AVENUE,41.8444896,-87.650924,Bridgeport
469820,5942 SOUTH STEWART AVENUE,41.7858844,-87.6355703,Englewood
424455,7347 SOUTH ASHLAND AVENUE,41.7598248,-87.6632828,Englewood
165918,1336 WEST WELLINGTON AVENUE,41.9363519,-87.6627562,Lake View
409560,7540 SOUTH BLACKSTONE AVENUE,41.75754379999999,-87.5886015,South Shore
519842,10108 SOUTH DOCTOR MARTIN LUTHER KING JR DRIVE,41.7106255,-87.61416940000002,Roseland
253134,2551 WEST CERMAK ROAD,41.8505541,-87.6899968,Little Village
550873,9344 SOUTH CHAPPEL AVENUE,41.7247716,-87.5744882,Calumet Heights
284890,2115 WEST HADDON AVENUE,41.9020001,-87.68036090000003,Ukrainian Village
545374,10111 SOUTH LOWE AVENUE,41.7102153,-87.6390002,Washington Heights
506037,10561 SOUTH LA SALLE STREET,41.70167410000001,-87.6266728,Roseland
524162,709 WEST 119TH STREET,41.677624,-87.6399727,West Pullman
65822,4451 NORTH MILWAUKEE AVENUE,41.9620149,-87.75513520000001,Portage Park
174387,1930 WEST BELLE PLAINE AVENUE,41.9562,-87.67767370000001,North Center
513158,11354 SOUTH INDIANA AVENUE,41.6874253,-87.61844920000001,Roseland
483856,5920 SOUTH ABERDEEN STREET,41.7862736,-87.65249370000002,Englewood
420615,6521 SOUTH CLAREMONT AVENUE,41.77492700000001,-87.681885,Chicago Lawn
142355,1931 NORTH KENNETH AVENUE,41.9161859,-87.7372657,Hermosa
440858,4829 SOUTH DORCHESTER AVENUE,41.8070093,-87.5916753,Kenwood
567586,9709 SOUTH PROSPECT AVENUE,41.7178048,-87.66418840000001,Beverly
366194,3818 WEST 64TH PLACE,41.7761787,-87.7186159,West Lawn
564833,11753 SOUTH LAFLIN STREET,41.6796932,-87.6587493,West Pullman
406659,1477 WEST 73RD PLACE,41.760177,-87.66179840000002,Englewood
513692,9927 SOUTH UNION AVENUE,41.71341279999999,-87.6402858,Washington Heights
173850,1744 NORTH CLEVELAND AVENUE,41.914149,-87.6414066,Old Town
462785,6215 SOUTH JUSTINE STREET,41.7808474,-87.662775,Englewood
103443,4968 NORTH KILPATRICK AVENUE,41.9718198,-87.7419828,Albany Park
435341,6211 SOUTH WOODLAWN AVENUE,41.781974700000006,-87.5955392,Woodlawn
37033,2711 NORTH NARRAGANSETT AVENUE,41.9295465,-87.7852917,Belmont Cragin
2967,6872 NORTH OVERHILL AVENUE,42.0054779,-87.81899320000002,Edison Park
459882,5239 SOUTH MAY STREET,41.798437,-87.653501,New City
561426,13306 SOUTH RIVERDALE AVENUE,41.6528987,-87.60903359999998,Riverdale
68095,5832 NORTH NINA AVENUE,41.987403,-87.8044901,Norwood Park
53029,2854 NORTH MOODY AVENUE,41.9327042,-87.7799247,Belmont Cragin
366621,5536 SOUTH FAIRFIELD AVENUE,41.7926126,-87.69282079999998,Gage Park
97248,4841 NORTH RIDGEWAY AVENUE,41.96949910000001,-87.721664,Albany Park
159396,3700 NORTH ALBANY AVENUE,41.9486228,-87.70564909999997,Irving Park
114039,5425 NORTH MONTCLARE AVENUE,41.9799307,-87.8044179,Norwood Park
476135,8452 SOUTH VERNON AVENUE,41.74047520000001,-87.6133363,Chatham
508617,224 EAST 95TH STREET,41.722104,-87.61794350000002,Roseland
146066,6218 WEST PETERSON AVENUE,41.9903749,-87.7835554,Norwood Park
480919,7731 SOUTH GREEN STREET,41.7533405,-87.6450817,Auburn Gresham
457714,8117 SOUTH VINCENNES AVENUE,41.7458627,-87.634763,Chatham
525454,9021 SOUTH CREGIER AVENUE,41.7308448,-87.580134,Calumet Heights
468805,1371 EAST 55TH PLACE,41.7946278,-87.59214990000002,Hyde Park
359902,2850 WEST 57TH STREET,41.7902161,-87.69576040000003,Gage Park
271708,5338 WEST MONROE STREET,41.8795045,-87.7592343,Austin
480505,7722 SOUTH CLYDE AVENUE,41.7545625,-87.57390090000001,South Shore
443873,8340 SOUTH DREXEL AVENUE,41.74277960000001,-87.602879,Chatham
344326,7242 SOUTH AVERS AVENUE,41.7610128,-87.7189181,West Lawn
544907,13041 SOUTH EBERHART AVENUE,41.6578324,-87.6103476,Riverdale
548813,9342 SOUTH OGLESBY AVENUE,41.7248956,-87.5671713,Calumet Heights
161089,814 WEST WRIGHTWOOD AVENUE,41.92933,-87.64961009999998,Sheffield & DePaul
248871,1409 NORTH LONG AVENUE,41.906151,-87.760537,Austin
338754,8245 SOUTH ALBANY AVENUE,41.743075,-87.6994728,Ashburn
34497,4028 NORTH CENTRAL AVENUE,41.9541098,-87.7673494,Portage Park
205078,1950 WEST BALMORAL AVENUE,41.9804286,-87.6787191,Lincoln Square
502208,9322 SOUTH HOYNE AVENUE,41.7239456,-87.6748944,Beverly
26112,3216 NORTH OLCOTT AVENUE,41.93852879999999,-87.8144926,Dunning
122028,5517 WEST HUTCHINSON STREET,41.9575311,-87.7654335,Portage Park
310672,1743 WEST AUGUSTA BOULEVARD,41.899416,-87.6715426,East Village
456504,8456 SOUTH EUCLID AVENUE,41.7408583,-87.57727890000002,Avalon Park
258516,1105 SOUTH TROY STREET,41.8680087,-87.70420949999998,North Lawndale
303364,2131 WEST MONROE STREET,41.87964960000001,-87.68014759999998,United Center
93372,2600 WEST LAWRENCE AVENUE,41.968768,-87.6939376,Lincoln Square
48481,2451 NORTH CICERO AVENUE,41.9258179,-87.7460372,Belmont Cragin
110733,4346 WEST WRIGHTWOOD AVENUE,41.9282059,-87.7360978,Hermosa
299353,851 WEST GRAND AVENUE,41.89092279999999,-87.64977890000002,West Town
170533,1822 WEST BARRY AVENUE,41.9379944,-87.6745779,North Center
500512,3258 WEST 108TH PLACE,41.696287100000006,-87.70345879999998,Mount Greenwood
148136,5930 NORTH FOREST GLEN AVENUE,41.9890789,-87.7436662,"Sauganash,Forest Glen"
378519,4604 SOUTH SACRAMENTO AVENUE,41.8098053,-87.6994337,Brighton Park
420132,8233 SOUTH MARSHFIELD AVENUE,41.74391129999999,-87.6641942,Auburn Gresham
201298,1232 WEST BELMONT AVENUE,41.9400718,-87.6602617,Lake View
366863,5256 SOUTH MILLARD AVENUE,41.7971963,-87.7149787,West Elsdon
191411,656 WEST BUENA AVENUE,41.9587749,-87.6474238,Uptown
83619,4622 WEST WRIGHTWOOD AVENUE,41.9288384,-87.7428335,Belmont Cragin
204111,6001 NORTH WINTHROP AVENUE,41.9910006,-87.6576254,Edgewater
447476,8000 SOUTH MORGAN STREET,41.7486388,-87.6490955,Auburn Gresham
217792,5111 WEST GLADYS AVENUE,41.87554229999999,-87.7538667,Austin
100664,3824 NORTH CHRISTIANA AVENUE,41.9510362,-87.7118796,Irving Park
323489,2311 WEST 35TH STREET,41.83003370000001,-87.68317440000001,Mckinley Park
486287,7646 SOUTH SAGINAW AVENUE,41.7558786,-87.5603271,South Shore
547833,8800 SOUTH INDIANA AVENUE,41.7344667,-87.6196282,Chatham
444058,7732 SOUTH ASHLAND AVENUE,41.7529255,-87.6637597,Auburn Gresham
469366,523 WEST 65TH STREET,41.7759566,-87.6383936,Englewood
582504,9612 SOUTH AVENUE L,41.720865,-87.536979,East Side
218635,3010 WEST FLOURNOY STREET,41.8730446,-87.7015238,Garfield Park
278805,2337 WEST 22ND PLACE,41.8509589,-87.6846184,Lower West Side
382023,5232 SOUTH CHRISTIANA AVENUE,41.7979406,-87.70762619999998,Gage Park
121558,2442 NORTH NEVA AVENUE,41.9250416,-87.8047261,Montclare
8123,7124 WEST SCHREIBER AVENUE,41.9988965,-87.80589609999998,Norwood Park
219774,3332 WEST LE MOYNE STREET,41.9084543,-87.7107762,Humboldt Park
444468,7756 SOUTH LOOMIS BOULEVARD,41.75234620000001,-87.6589173,Auburn Gresham
428304,703 WEST 76TH STREET,41.7559804,-87.641989,Auburn Gresham
400391,6805 SOUTH WOLCOTT AVENUE,41.7700947,-87.6709762,Englewood
209443,3724 NORTH HERMITAGE AVENUE,41.949507200000006,-87.6727753,Lake View
73581,6326 NORTH RICHMOND STREET,41.9965181,-87.703551,West Ridge
444090,6452 SOUTH SEELEY AVENUE,41.775952,-87.67531540000002,Englewood
93346,6228 WEST LAWRENCE AVENUE,41.9677957,-87.7831755,Portage Park
57933,4832 NORTH NATOMA AVENUE,41.9693276,-87.793141,Norwood Park
364909,5218 SOUTH WESTERN AVENUE,41.7987316,-87.6845332,Gage Park
267070,2433 WEST FLOURNOY STREET,41.8727694,-87.6875394,"Little Italy, UIC"
377720,4556 SOUTH AVERS AVENUE,41.8098845,-87.7202572,Archer Heights
479066,4244 SOUTH ASHLAND AVENUE,41.816406,-87.665471,New City
444775,7530 SOUTH GREENWOOD AVENUE,41.7578226,-87.59848149999998,Grand Crossing
203025,1446 WEST CUYLER AVENUE,41.9554692,-87.6662467,Lake View
296206,203 EAST 13TH STREET,41.8656609,-87.6220058,Near South Side
489350,3056 EAST 79TH PLACE,41.7511949,-87.54951070000001,South Chicago
308282,1118 NORTH ASHLAND AVENUE,41.9021023,-87.667793,East Village
531111,11323 SOUTH SAINT LAWRENCE AVENUE,41.6884754,-87.6080488,Pullman
523649,8833 SOUTH JUSTINE STREET,41.7329472,-87.66148340000002,Auburn Gresham
532183,10204 SOUTH SEELEY AVENUE,41.7078021,-87.67370179999998,Beverly
276427,2116 WEST OHIO STREET,41.8924122,-87.680181,West Town
424211,7442 SOUTH VERNON AVENUE,41.75898529999999,-87.61435209999998,Grand Crossing
463099,6457 SOUTH KENWOOD AVENUE,41.7770873,-87.59268259999997,Woodlawn
358115,5544 SOUTH FAIRFIELD AVENUE,41.7923701,-87.69280959999998,Gage Park
365931,6115 SOUTH ROCKWELL STREET,41.7823838,-87.68834559999998,Chicago Lawn
290519,931 WEST 35TH PLACE,41.82946870000001,-87.64897309999998,Bridgeport
506039,9334 SOUTH LUELLA AVENUE,41.7251066,-87.5696035,Calumet Heights
468467,8107 SOUTH LUELLA AVENUE,41.7477546,-87.5693798,South Chicago
500179,10319 SOUTH MILLARD AVENUE,41.7053871,-87.7119771,Mount Greenwood
503223,9441 SOUTH CHAMPLAIN AVENUE,41.72255620000001,-87.60783670000002,Roseland
88027,2716 WEST WINNEMAC AVENUE,41.9733474,-87.697125,Lincoln Square
566028,10556 SOUTH SANGAMON STREET,41.7015723,-87.64655440000001,Washington Heights
384846,6011 SOUTH SAWYER AVENUE,41.78402420000001,-87.7042169,Chicago Lawn
424942,8613 SOUTH STONY ISLAND AVENUE,41.738323,-87.5849511,Avalon Park
176694,2302 WEST GRANVILLE AVENUE,41.9944416,-87.6876247,West Ridge
435939,2225 WEST PERSHING ROAD,41.822278,-87.681301,New City
68669,2600 NORTH NORDICA AVENUE,41.9273481,-87.8030549,Montclare
321046,500 WEST ELM STREET,41.9028528,-87.64139300000002,River North
17110,6578 NORTH SHERIDAN ROAD,42.002416,-87.6610737,Rogers Park
343582,3638 WEST 64TH PLACE,41.7762534,-87.7145386,West Lawn
337743,4612 WEST 82ND STREET,41.7436855,-87.7358108,Ashburn
77457,3839 NORTH NOTTINGHAM AVENUE,41.9501101,-87.80443120000002,Dunning
415797,2220 EAST 70TH PLACE,41.7673194,-87.5706564,South Shore
392149,3916 WEST 79TH STREET,41.7498087,-87.72091929999998,Ashburn
296036,1231 SOUTH WABASH AVENUE,41.8666144,-87.6253146,Near South Side
195418,2625 NORTH WILTON AVENUE,41.9298221,-87.6522536,Sheffield & DePaul
252546,2707 WEST WARREN BOULEVARD,41.88180870000001,-87.6942893,Garfield Park
176716,3337 NORTH KENMORE AVENUE,41.9428149,-87.65513399999998,Lake View
322671,435 WEST EVERGREEN AVENUE,41.9062828,-87.640065,Old Town
100089,4929 WEST WRIGHTWOOD AVENUE,41.9276708,-87.75008129999998,Belmont Cragin
55908,5861 NORTH NAGLE AVENUE,41.9877883,-87.7873632,Norwood Park
230557,325 NORTH AVERS AVENUE,41.8860667,-87.72222990000002,Garfield Park
77478,5234 WEST CULLOM AVENUE,41.9589809,-87.7587497,Portage Park
442137,1231 EAST 74TH STREET,41.76009000000001,-87.594492,South Shore
201040,3241 NORTH LINCOLN AVENUE,41.94091220000001,-87.66915999999998,Lake View
460652,7152 SOUTH CARPENTER STREET,41.7635479,-87.65071429999998,Englewood
16827,1719 WEST ALBION AVENUE,42.0014405,-87.6731973,Rogers Park
411544,2307 WEST 69TH STREET,41.768141,-87.681169,Chicago Lawn
211106,878 WEST AINSLIE STREET,41.9718803,-87.6526064,Uptown
355828,4340 SOUTH ROCKWELL STREET,41.81439,-87.6897568,Brighton Park
200053,2741 NORTH GREENVIEW AVENUE,41.9318211,-87.66570779999998,Lincoln Park
548215,544 EAST 88TH STREET,41.7349632,-87.610239,Chatham
342567,3821 WEST 83RD STREET,41.7420526,-87.7176907,Ashburn
49968,1653 NORTH ROCKWELL STREET,41.9118387,-87.691851,Wicker Park
52573,4835 WEST ST PAUL AVENUE,41.9121721,-87.747337,Austin
38326,5941 NORTH LEADER AVENUE,41.9890648,-87.7557833,"Sauganash,Forest Glen"
383743,4911 SOUTH KILPATRICK AVENUE,41.8036328,-87.7403286,Garfield Ridge
416314,8504 SOUTH CARPENTER STREET,41.7393984,-87.6500742,Auburn Gresham
340327,6023 SOUTH NATOMA AVENUE,41.7823761,-87.7872682,Clearing
179757,650 WEST BUCKINGHAM PLACE,41.942945,-87.64654420000002,Boystown
165397,2131 WEST LAWRENCE AVENUE,41.9684248,-87.68283709999999,Lincoln Square
123118,4921 NORTH KENTUCKY AVENUE,41.9699778,-87.74175890000002,Albany Park
362181,8514 SOUTH KOLMAR AVENUE,41.7378015,-87.7351731,Ashburn
172257,2145 WEST WILSON AVENUE,41.964791,-87.68252170000002,Lincoln Square
32651,7501 WEST ROSEDALE AVENUE,41.9855489,-87.81446629999998,Norwood Park
562768,9951 SOUTH PEORIA STREET,41.7126809,-87.6451015,Washington Heights
535946,8713 SOUTH COTTAGE GROVE AVENUE,41.7362592,-87.60441440000002,Chatham
366325,5215 SOUTH NORDICA AVENUE,41.797176,-87.79759059999998,Garfield Ridge
92491,1954 NORTH NATOMA AVENUE,41.9161334,-87.79163050000002,Galewood
416719,6714 SOUTH OAKLEY AVENUE,41.771473,-87.681152,Chicago Lawn
460579,5756 SOUTH HARPER AVENUE,41.7898471,-87.58924809999998,Hyde Park
364586,5238 SOUTH KOSTNER AVENUE,41.7974036,-87.73336259999998,Archer Heights
62554,4830 NORTH TALMAN AVENUE,41.96942720000001,-87.69531409999998,Lincoln Square
152577,3000 WEST GEORGE STREET,41.9340861,-87.70274559999999,Avondale
466347,6807 SOUTH INDIANA AVENUE,41.7707835,-87.619946,Grand Crossing
493678,10502 SOUTH LAWNDALE AVENUE,41.7021628,-87.7137785,Mount Greenwood
473553,6217 SOUTH ASHLAND AVENUE,41.7807621,-87.6638745,Englewood
463381,7149 SOUTH PARNELL AVENUE,41.7638894,-87.63802079999998,Englewood
183598,1959 NORTH CLYBOURN AVENUE,41.91707589999999,-87.657454,Lincoln Park
370971,7834 SOUTH KILPATRICK AVENUE,41.7500271,-87.7392296,Ashburn
444155,6831 SOUTH JEFFERY BOULEVARD,41.7706497,-87.5761004,South Shore
360026,5317 SOUTH LONG AVENUE,41.795945,-87.7572324,Garfield Ridge
537725,8932 SOUTH HALSTED STREET,41.73153370000001,-87.64378609999999,Auburn Gresham
480662,6210 SOUTH SEELEY AVENUE,41.7807105,-87.6754308,Englewood
407098,738 WEST 51ST STREET,41.80178400000001,-87.64445,New City
203776,1728 NORTH BISSELL STREET,41.9132254,-87.6515506,Lincoln Park
101745,3820 NORTH KEDZIE AVENUE,41.950994,-87.7083574,Irving Park
453926,5612 SOUTH DORCHESTER AVENUE,41.7929742,-87.59205859999999,Hyde Park
159969,1745 NORTH TROY STREET,41.913294,-87.705529,Humboldt Park
43352,3536 NORTH LAWNDALE AVENUE,41.9458387,-87.7202231,Avondale
196569,1020 WEST WELLINGTON AVENUE,41.9364499,-87.65485799999998,Lake View
199363,3441 NORTH LAKEWOOD AVENUE,41.9447061,-87.66134009999998,Lake View
449595,6417 SOUTH SEELEY AVENUE,41.7769563,-87.6748042,Englewood
377687,7954 SOUTH CALIFORNIA AVENUE,41.7482771,-87.6928625,Ashburn
394386,4308 SOUTH SACRAMENTO AVENUE,41.8151383,-87.69959109999998,Brighton Park
52321,5214 WEST PENSACOLA AVENUE,41.9599027,-87.7580559,Portage Park
54355,4615 WEST SCHUBERT AVENUE,41.9293769,-87.7425084,Belmont Cragin
173532,1821 WEST MONTROSE AVENUE,41.9613156,-87.6753838,North Center
326079,8156 SOUTH WESTERN AVENUE,41.7447768,-87.6830495,Ashburn
234166,1251 SOUTH INDEPENDENCE BOULEVARD,41.864566,-87.71894250000003,North Lawndale
51948,3844 NORTH TROY STREET,41.9515852,-87.70701590000002,Irving Park
185328,1869 NORTH POE STREET,41.9160896,-87.6541557,Lincoln Park
104482,4349 WEST MCLEAN AVENUE,41.9177478,-87.73585340000002,Hermosa
377971,3717 WEST 82ND PLACE,41.7429795,-87.7151083,Ashburn
194591,6163 NORTH LAKEWOOD AVENUE,41.9943313,-87.66273740000003,Edgewater
317335,728 WEST MAXWELL STREET,41.86492970000001,-87.64620759999998,"Little Italy, UIC"
44846,3014 WEST MONTROSE AVENUE,41.9614788,-87.7039913,Albany Park
415034,2235 EAST 71ST STREET,41.7659779,-87.56987600000002,South Shore
449596,7843 SOUTH RIDGELAND AVENUE,41.7520683,-87.5817835,South Shore
81517,1744 NORTH KARLOV AVENUE,41.9130597,-87.7291594,Humboldt Park
362113,4945 SOUTH CICERO AVENUE,41.8026515,-87.7425287,Garfield Ridge
204399,546 WEST WELLINGTON AVENUE,41.9368628,-87.64375859999998,Lake View
515548,12608 SOUTH EMERALD AVENUE,41.6647583,-87.6405247,West Pullman
170718,528 WEST WRIGHTWOOD AVENUE,41.930426,-87.6426651,Lincoln Park
176556,1716 WEST BERWYN AVENUE,41.9781536,-87.6729213,Andersonville
425331,7757 SOUTH ADA STREET,41.7524014,-87.65648709999998,Auburn Gresham
490971,8530 SOUTH MUSKEGON AVENUE,41.7400251,-87.555347,South Chicago
344196,6059 SOUTH MENARD AVENUE,41.7817647,-87.7665043,Clearing
39136,2750 NORTH NEVA AVENUE,41.9304149,-87.8055275,Montclare
181515,2710 NORTH SOUTHPORT AVENUE,41.9309859,-87.6637564,Lincoln Park
184757,1711 NORTH CRILLY COURT,41.9132883,-87.6356042,Old Town
441070,7042 SOUTH CHAPPEL AVENUE,41.7667449,-87.57560620000002,South Shore
160573,3941 NORTH CLAREMONT AVENUE,41.953459,-87.68695500000003,North Center
538292,9346 SOUTH PERRY AVENUE,41.7239809,-87.6265605,Roseland
411005,359 WEST 42ND STREET,41.817959,-87.635869,Fuller Park
98873,5349 NORTH NAGLE AVENUE,41.9789225,-87.78754609999999,Jefferson Park
415870,1348 EAST 72ND PLACE,41.7635052,-87.5914427,South Shore
124128,2720 WEST WINNEMAC AVENUE,41.9733377,-87.69734040000002,Lincoln Square
246464,3517 WEST FULTON BOULEVARD,41.8860425,-87.71430490000002,Garfield Park
112016,6327 NORTH KEATING AVENUE,41.9967364,-87.7468051,"Sauganash,Forest Glen"
443182,7017 SOUTH EUCLID AVENUE,41.7673985,-87.577269,South Shore
325937,5858 SOUTH NORMANDY AVENUE,41.7850253,-87.78913100000003,Garfield Ridge
304051,870 WEST DIVISION STREET,41.9041275,-87.65102859999998,River North
559505,124 EAST 103RD PLACE,41.7065155,-87.6192696,Roseland
103882,5946 NORTH MANTON AVENUE,41.9889722,-87.77431290000001,Jefferson Park
362369,5039 SOUTH HOMAN AVENUE,41.8015129,-87.708371,Gage Park
547160,11125 SOUTH ASHLAND AVENUE,41.6913219,-87.66199,Morgan Park
498277,10412 SOUTH WESTERN AVENUE,41.7041192,-87.6818267,Beverly
256414,926 NORTH HARDING AVENUE,41.89801729999999,-87.7252405,Humboldt Park
558394,13079 SOUTH DREXEL AVENUE,41.6578104,-87.5999529,Riverdale
304740,1707 WEST 33RD STREET,41.8339347,-87.66837640000001,Mckinley Park
12813,2917 WEST HOWARD STREET,42.019031,-87.70268730000002,West Ridge
165731,1635 WEST WOLFRAM STREET,41.9330931,-87.66983940000001,Lake View
405183,2325 WEST 72ND STREET,41.762689,-87.681688,Chicago Lawn
240030,1409 NORTH TRIPP AVENUE,41.9066611,-87.73219370000002,Humboldt Park
101601,5808 WEST GRACE STREET,41.9496442,-87.7722443,Portage Park
535079,9738 SOUTH LOWE AVENUE,41.7166883,-87.63972559999998,Washington Heights
497345,11235 SOUTH KEDZIE AVENUE,41.6886683,-87.7003724,Mount Greenwood
104569,1652 NORTH MAJOR AVENUE,41.9109335,-87.7682548,Austin
418518,6515 SOUTH WOLCOTT AVENUE,41.7752294,-87.6711246,Englewood
228428,5322 WEST KINZIE STREET,41.8880045,-87.7587749,Austin
301275,218 WEST ONTARIO STREET,41.8934337,-87.63496009999999,River North
372734,6032 SOUTH MAJOR AVENUE,41.7824653,-87.76461280000002,Clearing
73146,3508 NORTH ELSTON AVENUE,41.9448,-87.70679009999998,Avondale
197658,1943 WEST PATTERSON AVENUE,41.9475872,-87.6778892,North Center
557050,10513 SOUTH CALUMET AVENUE,41.7031903,-87.61459140000002,Roseland
27372,3242 NORTH OCONTO AVENUE,41.9392844,-87.8082499,Dunning
78503,2745 NORTH HARLEM AVENUE,41.9303044,-87.8060459,Montclare
419644,7327 SOUTH GREENWOOD AVENUE,41.7614687,-87.59790109999999,Grand Crossing
32785,8321 WEST FOREST PRESERVE AVENUE,41.9405705,-87.83451540000002,Dunning
18126,6455 NORTH BOSWORTH AVENUE,41.9997269,-87.6689712,Rogers Park
451461,5539 SOUTH CORNELL AVENUE,41.7940255,-87.58500079999997,Hyde Park
354940,4228 SOUTH PULASKI ROAD,41.8157899,-87.72470109999998,Archer Heights
186842,5125 NORTH WINTHROP AVENUE,41.9760409,-87.65750190000001,Uptown
49675,5927 NORTH VIRGINIA AVENUE,41.9892905,-87.70671870000002,West Ridge
375836,5421 SOUTH NEWLAND AVENUE,41.793407,-87.7949898,Garfield Ridge
340216,6134 SOUTH MENARD AVENUE,41.7805766,-87.76695579999998,Clearing
499255,11037 SOUTH ARTESIAN AVENUE,41.69255070000001,-87.68220409999998,Morgan Park
179405,1646 NORTH MOHAWK STREET,41.91242620000001,-87.6425161,Old Town
19774,7009 NORTH RIDGE BOULEVARD,42.00931720000001,-87.6813015,Rogers Park
215554,1456 NORTH LINDER AVENUE,41.9074699,-87.7636552,Austin
133489,4426 NORTH KENNETH AVENUE,41.9616852,-87.740082,Irving Park
303249,12 SOUTH OAKLEY BOULEVARD,41.8805635,-87.6843026,United Center
211334,1723 NORTH FREMONT STREET,41.91340770000001,-87.6504822,Lincoln Park
258925,5062 WEST ADAMS STREET,41.8787302,-87.75196690000001,Austin
258352,1111 SOUTH INDEPENDENCE BOULEVARD,41.86765629999999,-87.7192568,North Lawndale
405095,,41.770325,-87.640513,Englewood
571507,9825 SOUTH EXCHANGE AVENUE,41.7165177,-87.55210229999999,South Deering
439079,4717 SOUTH GREENWOOD AVENUE,41.8090352,-87.5989142,Kenwood
577885,9710 SOUTH EXCHANGE AVENUE,41.7186622,-87.5526929,South Deering
32606,3754 NORTH PACIFIC AVENUE,41.94842720000001,-87.8270641,Dunning
131437,4421 NORTH MONITOR AVENUE,41.9610885,-87.7730917,Portage Park
5727,3146 WEST JARVIS AVENUE,42.0157173,-87.7085554,West Ridge
129169,5117 WEST HUTCHINSON STREET,41.9576468,-87.7555545,Portage Park
29013,8500 WEST CARMEN AVENUE,41.9718894,-87.8386433,O'Hare
57672,5601 NORTH LINCOLN AVENUE,41.98356010000001,-87.6950819,West Ridge
186501,542 WEST GRANT PLACE,41.9230662,-87.6430948,Lincoln Park
130692,4036 NORTH CENTRAL AVENUE,41.95431660000001,-87.76731540000002,Portage Park
403986,834 EAST 40TH STREET,41.8217003,-87.60502340000002,Oakland
70683,4914 NORTH MILWAUKEE AVENUE,41.9699214,-87.7629754,Jefferson Park
15338,1712 WEST FARWELL AVENUE,42.0067391,-87.6740126,Rogers Park
455060,8044 SOUTH PAXTON AVENUE,41.7485542,-87.57134920000001,South Chicago
191730,1622 WEST CARMEN AVENUE,41.974681,-87.67056509999998,Uptown
442235,8231 SOUTH VERNON AVENUE,41.7447282,-87.6132055,Chatham
50115,3942 NORTH NORA AVENUE,41.9520753,-87.8025953,Dunning
578490,10424 SOUTH GREEN BAY AVENUE,41.7055926,-87.5416319,East Side
177755,546 WEST BROMPTON AVENUE,41.9475374,-87.6448891,Lake View
55333,4875 NORTH KILPATRICK AVENUE,41.9696094,-87.74400390000002,Albany Park
394607,5710 WEST 63RD PLACE,41.7773434,-87.7646498,Clearing
481406,8123 SOUTH CRANDON AVENUE,41.747325,-87.5683171,South Chicago
477386,8244 SOUTH WOOD STREET,41.7435294,-87.66839940000001,Auburn Gresham
352127,6024 SOUTH KEATING AVENUE,41.7831296,-87.74150809999998,Clearing
194769,6372 NORTH HERMITAGE AVENUE,41.997643,-87.6738624,Edgewater
36201,6125 NORTH MEADE AVENUE,41.9927133,-87.78003290000002,Norwood Park
418209,1733 WEST 47TH STREET,41.808359,-87.668768,New City
482170,8123 SOUTH CALUMET AVENUE,41.7467395,-87.6157801,Chatham
512571,11440 SOUTH LONGWOOD DRIVE,41.685344,-87.6734709,Morgan Park
382294,5252 SOUTH NEWLAND AVENUE,41.7961833,-87.79564029999997,Garfield Ridge
73983,2442 NORTH NEWCASTLE AVENUE,41.9249174,-87.79676490000001,Montclare
145797,6724 WEST DEVON AVENUE,41.9973047,-87.7966062,Norwood Park
278201,644 WEST FULTON MARKET,41.8872131,-87.6448126,West Loop
265486,838 NORTH DRAKE AVENUE,41.8966196,-87.71539849999998,Humboldt Park
184627,5300 NORTH WINCHESTER AVENUE,41.9780287,-87.67811590000002,Lincoln Square
95568,4234 NORTH MARMORA AVENUE,41.9577685,-87.7747608,Portage Park
483122,7548 SOUTH HAMILTON AVENUE,41.7560928,-87.67771359999998,Auburn Gresham
13949,7314 NORTH SHERIDAN ROAD,42.01447720000001,-87.6649065,Rogers Park
161066,2602 NORTH HALSTED STREET,41.9293966,-87.64931109999998,Sheffield & DePaul
291534,3238 SOUTH GREEN STREET,41.8352251,-87.64735379999998,Bridgeport
82393,5540 NORTH LINDER AVENUE,41.98237750000001,-87.7662105,Jefferson Park
550396,1709 WEST 104TH STREET,41.7050175,-87.6651191,Beverly
323458,3135 SOUTH GILES AVENUE,41.8373266,-87.6191715,Douglas
147626,6337 WEST BYRON STREET,41.9509061,-87.78552370000001,Dunning
109604,3126 NORTH LAWNDALE AVENUE,41.9381981,-87.71988540000002,Avondale
563161,10553 SOUTH FOREST AVENUE,41.7021012,-87.6158287,Roseland
126232,4743 WEST GRACE STREET,41.9495585,-87.74640240000002,Portage Park
301742,1334 WEST RANDOLPH STREET,41.8845789,-87.66025929999998,West Loop
350893,7505 SOUTH CICERO AVENUE,41.7563758,-87.7368485,West Lawn
3677,6671 NORTH OCTAVIA AVENUE,42.0022709,-87.80890240000002,Edison Park
272276,846 NORTH MONTICELLO AVENUE,41.8968675,-87.7178371,Humboldt Park
542609,9200 SOUTH WINCHESTER AVENUE,41.7263843,-87.6716996,Beverly
448426,7218 SOUTH INDIANA AVENUE,41.7632269,-87.6204011,Grand Crossing
534521,521 EAST 89TH STREET,41.7326927,-87.61104370000002,Chatham
153024,4935 WEST ALTGELD STREET,41.9258482,-87.7502086,Belmont Cragin
62225,6330 WEST BARRY AVENUE,41.9366819,-87.7847398,Belmont Cragin
59359,6975 WEST WELLINGTON AVENUE,41.93424279999999,-87.8008989,Montclare
63263,2213 NORTH LATROBE AVENUE,41.9209782,-87.7569864,Belmont Cragin
221205,1322 NORTH CICERO AVENUE,41.9048591,-87.7463296,Austin
561592,534 EAST 134TH STREET,41.6520797,-87.60826750000003,Riverdale
15341,1730 WEST FARWELL AVENUE,42.0068873,-87.6746282,Rogers Park
224309,1300 SOUTH KEDVALE AVENUE,41.864169,-87.7291364,North Lawndale
153753,5643 NORTH KARLOV AVENUE,41.9840499,-87.73062,North Park
320653,2031 WEST COULTER STREET,41.84879829999999,-87.6768459,Lower West Side
439257,720 EAST 81ST STREET,41.74779470000001,-87.6066899,Chatham
158240,5263 NORTH LIND AVENUE,41.9772474,-87.7623489,Jefferson Park
28229,7806 WEST FOSTER AVENUE,41.974362,-87.8222123,Norwood Park
392295,6147 SOUTH NARRAGANSETT AVENUE,41.779975,-87.78106059999998,Clearing
541273,731 EAST 101ST STREET,41.7105513,-87.6043689,Pullman
121180,4511 WEST ALTGELD STREET,41.9260345,-87.7395759,Hermosa
501027,10823 SOUTH HAMLIN AVENUE,41.6961219,-87.7153399,Mount Greenwood
314088,1475 WEST CORTEZ STREET,41.9004308,-87.6650255,West Town
486710,8553 SOUTH HOUSTON AVENUE,41.739515,-87.5499858,South Chicago
486218,8439 SOUTH ESCANABA AVENUE,41.7415953,-87.5535316,South Chicago
184070,1447 WEST CATALPA AVENUE,41.98151890000001,-87.66676890000002,Andersonville
147582,4405 WEST ROSCOE STREET,41.9424272,-87.7374042,Irving Park
29128,7632 WEST EVERELL AVENUE,41.9926124,-87.8180642,Norwood Park
422367,6332 SOUTH THROOP STREET,41.7785583,-87.65719490000002,Englewood
161488,2707 NORTH ASHLAND AVENUE,41.9309008,-87.6679595,Lincoln Park
473350,945 WEST 71ST STREET,41.764923,-87.6486337,Englewood
187744,1750 NORTH SAINT MICHAELS COURT,41.9142276,-87.6405409,Old Town
355145,3238 WEST 66TH STREET,41.7736917,-87.7045583,Chicago Lawn
531277,11722 SOUTH PRINCETON AVENUE,41.6808698,-87.6302409,West Pullman
492125,10114 SOUTH HARDING AVENUE,41.7089833,-87.7205877,Mount Greenwood
162286,3809 NORTH HOYNE AVENUE,41.9508211,-87.6808372,North Center
45236,3452 WEST PETERSON AVENUE,41.9905435,-87.71612629999998,North Park
513564,8836 SOUTH DANTE AVENUE,41.73393710000001,-87.5895791,Calumet Heights
408284,1743 WEST 71ST STREET,41.7646543,-87.66797220000002,Englewood
174540,1007 WEST ARMITAGE AVENUE,41.9178737,-87.6537184,Lincoln Park
492473,10635 SOUTH MILLARD AVENUE,41.6994414,-87.7118163,Mount Greenwood
287406,1638 SOUTH INDIANA AVENUE,41.859053,-87.6228265,Near South Side
222004,1345 SOUTH KEELER AVENUE,41.8629245,-87.7297003,North Lawndale
518662,1538 WEST 119TH STREET,41.67782620000001,-87.66050809999999,West Pullman
545103,9746 SOUTH VINCENNES AVENUE,41.7167472,-87.65264559999999,Washington Heights
370605,3807 WEST 58TH PLACE,41.78671920000001,-87.71844770000001,West Elsdon
398074,7149 SOUTH WINCHESTER AVENUE,41.76339160000001,-87.6720165,Englewood
156497,5937 NORTH MEDINA AVENUE,41.9891045,-87.7782819,Norwood Park
331954,2534 WEST 64TH STREET,41.777568,-87.687501,Chicago Lawn
332782,5100 SOUTH LAWLER AVENUE,41.8001055,-87.7493392,Garfield Ridge
136210,5619 WEST BARRY AVENUE,41.9366133,-87.7671537,Belmont Cragin
57900,6135 WEST BERENICE AVENUE,41.9500403,-87.7805192,Dunning
479887,906 WEST 71ST STREET,41.7653384,-87.6472345,Englewood
55903,3222 NORTH NATCHEZ AVENUE,41.9389718,-87.7887968,Dunning
350772,6225 SOUTH KILDARE AVENUE,41.7796071,-87.7298443,West Lawn
553509,9822 SOUTH MERRION AVENUE,41.7157824,-87.569648,South Deering
547252,10505 SOUTH CALUMET AVENUE,41.7034385,-87.6146082,Roseland
50765,4258 NORTH KNOX AVENUE,41.9580757,-87.74457,Irving Park
398591,7715 SOUTH RIDGELAND AVENUE,41.7547126,-87.581887,South Shore
85250,4909 NORTH TRIPP AVENUE,41.9702934,-87.7339759,Albany Park
37666,6204 WEST IRVING PARK ROAD,41.9532458,-87.7819697,Portage Park
133800,2843 WEST BALMORAL AVENUE,41.9792305,-87.7007642,Lincoln Square
34827,2849 WEST BERTEAU AVENUE,41.9574545,-87.7002964,Irving Park
10287,2623 WEST LUNT AVENUE,42.00833400000001,-87.69596740000001,West Ridge
383875,6354 SOUTH KEDZIE AVENUE,41.7773839,-87.7033057,Chicago Lawn
456410,8114 SOUTH WOOD STREET,41.7461556,-87.6684944,Auburn Gresham
232215,3918 WEST ROOSEVELT ROAD,41.8664588,-87.72353559999998,North Lawndale
500752,2555 WEST 110TH STREET,41.69338610000001,-87.68580990000002,Morgan Park
94994,4441 NORTH PARKSIDE AVENUE,41.9616734,-87.7681928,Portage Park
107922,3610 NORTH SAINT LOUIS AVENUE,41.9469107,-87.7154878,Irving Park
71123,6119 NORTH MASON AVENUE,41.99260870000001,-87.7763152,Jefferson Park
384073,5200 SOUTH NEENAH AVENUE,41.7976518,-87.7859098,Garfield Ridge
478145,5847 SOUTH STATE STREET,41.7877883,-87.6252143,Washington Park
448527,7926 SOUTH LAFLIN STREET,41.7495672,-87.6612708,Auburn Gresham
326453,5833 SOUTH NEWLAND AVENUE,41.7856143,-87.79471720000002,Garfield Ridge
186270,5121 NORTH RAVENSWOOD AVENUE,41.9749417,-87.6740302,Uptown
132794,5559 NORTH LUNA AVENUE,41.9827912,-87.76685359999998,Jefferson Park
419111,4734 SOUTH LANGLEY AVENUE,41.8084623,-87.6092678,Grand Boulevard
566644,10837 SOUTH SANGAMON STREET,41.6966766,-87.64587490000002,Morgan Park
201881,2521 NORTH MARSHFIELD AVENUE,41.927616,-87.6691059,Lincoln Park
253208,2634 WEST 37TH PLACE,41.8258151,-87.6909687,Brighton Park
163814,2147 NORTH WESTERN AVENUE,41.921248,-87.687191,Bucktown
400716,7537 SOUTH CARPENTER STREET,41.7565893,-87.64996040000003,Auburn Gresham
228783,59 NORTH PARKSIDE AVENUE,41.8820274,-87.76620759999999,Austin
540661,8848 SOUTH RIDGELAND AVENUE,41.7336709,-87.5819116,Calumet Heights
513212,11114 SOUTH WALLACE STREET,41.6918883,-87.63783509999998,Roseland
404652,7835 SOUTH BENNETT AVENUE,41.7523615,-87.5781257,South Shore
199974,1948 NORTH DAYTON STREET,41.9174338,-87.6499895,Lincoln Park
71220,4931 NORTH MENARD AVENUE,41.9704761,-87.7731293,Jefferson Park
561168,9810 SOUTH FOREST AVENUE,41.71600520000001,-87.6166926,Roseland
162438,1724 NORTH MOHAWK STREET,41.9136056,-87.6426333,Old Town
564272,10314 SOUTH WOOD STREET,41.7060717,-87.66738829999998,Beverly
136518,2704 NORTH MULLIGAN AVENUE,41.9293966,-87.7846863,Belmont Cragin
74913,3141 NORTH LOTUS AVENUE,41.9380255,-87.7625232,Belmont Cragin
415266,6426 SOUTH DREXEL AVENUE,41.7778132,-87.60307359999999,Woodlawn
477838,6916 SOUTH BELL AVENUE,41.7677927,-87.6798585,Chicago Lawn
93047,6521 WEST FOSTER AVENUE,41.9754036,-87.7911853,Norwood Park
219421,959 NORTH PARKSIDE AVENUE,41.89836070000001,-87.76645859999998,Austin
12348,2648 WEST FITCH AVENUE,42.0114544,-87.69690779999998,West Ridge
476223,5304 SOUTH CARPENTER STREET,41.797608,-87.65159399999997,New City
187526,3632 NORTH LEAVITT STREET,41.9478286,-87.6836964,North Center
179101,1614 WEST BERWYN AVENUE,41.9781695,-87.6703848,Andersonville
384801,5229 SOUTH MOZART STREET,41.798235,-87.69485829999998,Gage Park
402977,8458 SOUTH YATES BOULEVARD,41.7409557,-87.5663495,South Chicago
217890,4020 WEST 24TH PLACE,41.8471735,-87.72558070000002,Little Village
259935,2332 SOUTH AVERS AVENUE,41.848577,-87.7212548,Little Village
350184,6609 SOUTH ARTESIAN AVENUE,41.7734799,-87.68440109999997,Chicago Lawn
313616,906 NORTH MOHAWK STREET,41.89885220000001,-87.64139109999998,River North
271644,4259 WEST 21ST PLACE,41.85226779999999,-87.7319181,North Lawndale
162476,4235 NORTH WINCHESTER AVENUE,41.9588657,-87.6770323,North Center
62442,5749 NORTH CAMPBELL AVENUE,41.9864255,-87.6916835,West Ridge
508124,1700 EAST 92ND STREET,41.7280742,-87.582459,Calumet Heights
436966,6330 SOUTH DAMEN AVENUE,41.7783341,-87.674132,Englewood
372838,4543 SOUTH TROY STREET,41.8104716,-87.7025739,Brighton Park
358300,4125 WEST 70TH STREET,41.7660698,-87.72596209999998,West Lawn
5148,6502 NORTH MILWAUKEE AVENUE,41.9992531,-87.789975,Norwood Park
341386,3004 WEST 54TH PLACE,41.79472979999999,-87.6989835,Gage Park
307690,3735 SOUTH WOOD STREET,41.82575429999999,-87.67003050000002,Mckinley Park
525872,1303 WEST 108TH STREET,41.6974457,-87.65495849999998,Morgan Park
50371,5218 WEST OAKDALE AVENUE,41.9343297,-87.7573311,Belmont Cragin
426265,8533 SOUTH CARPENTER STREET,41.7386509,-87.64949759999998,Auburn Gresham
297587,925B NORTH RACINE AVENUE,41.8983253,-87.6571281,West Town
481599,4852 SOUTH ASHLAND AVENUE,41.805216,-87.665233,New City
178692,1418 WEST LILL AVENUE,41.9281432,-87.6642728,Lincoln Park
121118,3337 NORTH NOTTINGHAM AVENUE,41.9409714,-87.804096,Dunning
438345,318 EAST 47TH STREET,41.8095342,-87.61867009999997,Grand Boulevard
450473,1615 EAST 55TH STREET,41.7950427,-87.5859598,Hyde Park
97200,6334 WEST BERTEAU AVENUE,41.9567891,-87.78564320000002,Portage Park
126534,4953 NORTH LOWELL AVENUE,41.9715841,-87.7364636,Albany Park
484601,8049 SOUTH MARQUETTE AVENUE,41.7485985,-87.5586277,South Chicago
169420,3828 NORTH CLAREMONT AVENUE,41.951263,-87.687441,North Center
77002,6172 NORTH NASSAU AVENUE,41.9930943,-87.7932938,Norwood Park
397126,4112 SOUTH ROCKWELL STREET,41.8188546,-87.68989350000003,Brighton Park
557098,10 EAST 112TH STREET,41.6909846,-87.6226011,Roseland
83995,3580 WEST DICKENS AVENUE,41.919303,-87.7166686,Logan Square
7400,7450 NORTH WESTERN AVENUE,42.0172923,-87.6904894,West Ridge
545514,8900 SOUTH RIDGELAND AVENUE,41.7332584,-87.58193059999998,Calumet Heights
577495,10030 SOUTH EWING AVENUE,41.7129272,-87.5358082,East Side
272523,3005 SOUTH KARLOV AVENUE,41.8384415,-87.7265511,Little Village
506484,11527 SOUTH MAY STREET,41.6841283,-87.650359,West Pullman
89113,4645 WEST WRIGHTWOOD AVENUE,41.92797210000001,-87.74359749999998,Belmont Cragin
441968,1502 EAST 69TH PLACE,41.76891060000001,-87.58766259999999,South Shore
121537,4221 NORTH SPAULDING AVENUE,41.9582289,-87.7102931,Irving Park
426739,1706 WEST 47TH STREET,41.808774,-87.667748,New City
499916,11136 SOUTH FAIRFIELD AVENUE,41.6906237,-87.6899934,Morgan Park
231465,1305 NORTH LONG AVENUE,41.9042317,-87.7607163,Austin
412931,7751 SOUTH CHAPPEL AVENUE,41.753813,-87.57455709999998,South Shore
24317,3241 NORTH OVERHILL AVENUE,41.9391742,-87.8187418,Dunning
465410,5212 SOUTH PEORIA STREET,41.799274,-87.647986,New City
481058,4208 SOUTH VINCENNES AVENUE,41.81819520000001,-87.6141338,Grand Boulevard
517056,109 WEST 104TH PLACE,41.7041855,-87.6262553,Roseland
439993,7145 SOUTH CYRIL AVENUE,41.7647945,-87.5766042,South Shore
313262,1950 WEST 21ST STREET,41.8542797,-87.6754496,Lower West Side
162743,4320 NORTH HERMITAGE AVENUE,41.9603919,-87.672748,Lake View
472656,4953 SOUTH CALUMET AVENUE,41.8041955,-87.6177607,Grand Boulevard
174674,606 WEST BELDEN AVENUE,41.9239365,-87.6441878,Lincoln Park
237800,2435 WEST SUPERIOR STREET,41.8946184,-87.68819570000002,West Town
495282,10410 SOUTH HAMLIN AVENUE,41.7037193,-87.7162115,Mount Greenwood
523802,11653 SOUTH BISHOP STREET,41.68153270000001,-87.6575827,West Pullman
490474,8605 SOUTH HOUSTON AVENUE,41.73895529999999,-87.5499628,South Chicago
423142,7030 SOUTH HERMITAGE AVENUE,41.765743,-87.6677274,Englewood
316598,3667 SOUTH ARCHER AVENUE,41.8271767,-87.6824931,Mckinley Park
469937,4911 SOUTH FORRESTVILLE AVENUE,41.8054154,-87.612278,Grand Boulevard
24322,3413 NORTH PACIFIC AVENUE,41.9415821,-87.82618790000002,Dunning
525113,2330 WEST 111TH STREET,41.6919511,-87.6799277,Morgan Park
570891,10530 SOUTH AVENUE M,41.703632,-87.53798499999998,East Side
385441,4142 WEST 56TH PLACE,41.7906336,-87.7272593,West Elsdon
486514,7503 SOUTH COLFAX AVENUE,41.7588528,-87.5613067,South Shore
318169,1012 WEST CULLERTON STREET,41.8554583,-87.65211579999998,Lower West Side
192661,4537 NORTH MAGNOLIA AVENUE,41.9646717,-87.660628,Uptown
245786,4317 WEST FLOURNOY STREET,41.8720875,-87.7334797,Garfield Park
233885,1420 SOUTH AVERS AVENUE,41.8619108,-87.7216809,North Lawndale
391901,5819 SOUTH MONITOR AVENUE,41.7865105,-87.7678766,Garfield Ridge
168414,1627 NORTH SEDGWICK STREET,41.9118785,-87.6383589,Old Town
556848,11406 SOUTH BISHOP STREET,41.6864136,-87.6587104,Morgan Park
28423,5256 NORTH ORIOLE AVENUE,41.9759462,-87.8171889,Norwood Park
567898,9913 SOUTH BEVERLY AVENUE,41.7136583,-87.6591689,Washington Heights
33972,7739 WEST CATALPA AVENUE,41.9794139,-87.8208932,Norwood Park
61222,4864 NORTH KRUGER AVENUE,41.9696988,-87.7464515,Albany Park
172456,917 WEST BELDEN AVENUE,41.923381,-87.6518073,Sheffield & DePaul
440455,4931 SOUTH SAINT LAWRENCE AVENUE,41.8048076,-87.61106690000003,Grand Boulevard
322490,1457 NORTH PAULINA STREET,41.9085121,-87.6698035,Wicker Park
172670,3329 NORTH BELL AVENUE,41.94220470000001,-87.6841891,North Center
205226,2810 NORTH SEMINARY AVENUE,41.9329997,-87.6565444,Lake View
29794,3036 NORTH HARLEM AVENUE,41.9355976,-87.80695240000001,Dunning
176213,3735 NORTH RAVENSWOOD AVENUE,41.94975520000001,-87.6733612,Lake View
489643,7807 SOUTH SOUTH SHORE DRIVE,41.755029,-87.55097020000002,South Shore
329441,6925 SOUTH ROCKWELL STREET,41.7674777,-87.68791929999998,Chicago Lawn
45007,5025 NORTH RUTHERFORD AVENUE,41.9728235,-87.7949227,Norwood Park
528616,106 WEST 112TH STREET,41.6909545,-87.62618979999998,Roseland
257382,859 NORTH MASSASOIT AVENUE,41.896501,-87.7687583,Austin
37337,6127 NORTH KIRKWOOD AVENUE,41.992888,-87.7411182,"Sauganash,Forest Glen"
18123,7525 NORTH CLARK STREET,42.01890820000001,-87.6739941,Rogers Park
148526,5021 NORTH CENTRAL AVENUE,41.9722813,-87.7682322,Jefferson Park
513098,10535 SOUTH WABASH AVENUE,41.7024469,-87.6219338,Roseland
476130,5737 SOUTH DAMEN AVENUE,41.7891611,-87.6739152,Englewood
369101,5151 SOUTH MAJOR AVENUE,41.7985227,-87.7646167,Garfield Ridge
23227,8683 WEST FOSTER AVENUE,41.9727752,-87.84369709999999,O'Hare
440897,518 WEST 81ST STREET,41.747226,-87.63749940000002,Chatham
373719,3528 WEST 78TH PLACE,41.7508084,-87.710911,Ashburn
271454,3230 WEST 38TH PLACE,41.823658,-87.7057446,Brighton Park
18049,6540 NORTH ASHLAND AVENUE,42.0011882,-87.6709742,Rogers Park
162104,1876 NORTH WILMOT AVENUE,41.9158577,-87.68469350000002,Bucktown
268247,1329 NORTH PARKSIDE AVENUE,41.904883,-87.7667109,Austin
43908,6071 NORTH NEVA AVENUE,41.9920391,-87.80535859999998,Norwood Park
147717,2851 WEST GLENLAKE AVENUE,41.9919992,-87.7014839,West Ridge
250861,844 NORTH SAINT LOUIS AVENUE,41.89683839999999,-87.7141939,Humboldt Park
119890,5000 WEST SUNNYSIDE AVENUE,41.9627347,-87.752627,Portage Park
540268,936 EAST 100TH STREET,41.7119929,-87.600403,Pullman
496371,2645 WEST 107TH STREET,41.6988288,-87.68808299999998,Morgan Park
310849,1509 WEST 17TH STREET,41.8585828,-87.6642066,Lower West Side
367552,6415 SOUTH MAPLEWOOD AVENUE,41.7769328,-87.6869446,Chicago Lawn
335789,3522 WEST 60TH STREET,41.7845138,-87.7115898,Chicago Lawn
578891,10341 SOUTH AVENUE M,41.707001,-87.537446,East Side
447141,8012 SOUTH MARSHFIELD AVENUE,41.7480589,-87.6648811,Auburn Gresham
344893,4225 SOUTH WASHTENAW AVENUE,41.8165995,-87.69175729999998,Brighton Park
308980,1724 WEST PIERCE AVENUE,41.910003,-87.67116920000002,Wicker Park
450365,1445 EAST 76TH STREET,41.7566826,-87.58898959999998,South Shore
59196,6957 WEST BERWYN AVENUE,41.97695220000001,-87.8019241,Norwood Park
112599,4748 NORTH KEYSTONE AVENUE,41.9670783,-87.72948459999998,Albany Park
505660,209 EAST 87TH STREET,41.73622460000001,-87.618874,Chatham
377179,6058 WEST 55TH STREET,41.7927083,-87.77433909999998,Garfield Ridge
509552,9115 SOUTH WABASH AVENUE,41.7286139,-87.62205300000002,Roseland
458480,6432 SOUTH CLAREMONT AVENUE,41.77639,-87.68248,Chicago Lawn
493846,11349 SOUTH WASHTENAW AVENUE,41.6867002,-87.68807690000001,Morgan Park
374408,5700 SOUTH KEDZIE AVENUE,41.7897467,-87.7037983,Gage Park
73250,3313 WEST PALMER STREET,41.9206755,-87.7109225,Logan Square
165376,2659 NORTH ASHLAND AVENUE,41.9303122,-87.668083,Lincoln Park
200273,3929 NORTH WESTERN AVENUE,41.953093,-87.688137,North Center
575845,8758 SOUTH BURLEY AVENUE,41.735505,-87.5469207,South Chicago
337358,5139 SOUTH HOMAN AVENUE,41.7995515,-87.7083652,Gage Park
302563,1414 WEST 35TH STREET,41.8316076,-87.66292709999998,Mckinley Park
208774,3315 NORTH LAKEWOOD AVENUE,41.9421566,-87.66114549999998,Lake View
450514,1520 EAST 84TH STREET,41.7425447,-87.5874338,Avalon Park
44245,2435 WEST MCLEAN AVENUE,41.9183891,-87.68882420000001,Logan Square
179691,872 WEST AINSLIE STREET,41.97188010000001,-87.6525714,Uptown
169343,1830 WEST EDDY STREET,41.9462185,-87.6752103,North Center
506576,12157 SOUTH PRINCETON AVENUE,41.67266470000001,-87.62943309999999,West Pullman
377866,3145 WEST 40TH PLACE,41.819705600000006,-87.70374059999997,Brighton Park
412839,4358 SOUTH HERMITAGE AVENUE,41.814146,-87.66905200000002,New City
125909,3260 WEST PETERSON AVENUE,41.99053660000001,-87.71148520000001,North Park
407806,7914 SOUTH OGLESBY AVENUE,41.7511957,-87.5677281,South Chicago
260138,731 NORTH HARDING AVENUE,41.89451079999999,-87.7245671,Humboldt Park
212467,3259 NORTH LEAVITT STREET,41.9412191,-87.68302,North Center
81230,5324 NORTH CAMPBELL AVENUE,41.9786841,-87.6919282,Lincoln Square
515283,12624 SOUTH YALE AVENUE,41.6644532,-87.6285001,West Pullman
56183,5343 WEST CARMEN AVENUE,41.9731432,-87.7619708,Jefferson Park
576451,11038 SOUTH AVENUE J,41.694275,-87.534348,East Side
269131,4412 WEST MONROE STREET,41.8798255,-87.7360803,Garfield Park
512233,9831 SOUTH BEVERLY AVENUE,41.7151114,-87.6598439,Washington Heights
86982,2224 NORTH AUSTIN AVENUE,41.9213768,-87.7759187,Belmont Cragin
90538,1817 NORTH ROCKWELL STREET,41.91450510000001,-87.6920021,Logan Square
256844,5451 WEST POTOMAC AVENUE,41.9037554,-87.7629461,Austin
182954,2210 NORTH CLARK STREET,41.922312700000006,-87.6386805,Lincoln Park
177962,898 WEST FLETCHER STREET,41.9391015,-87.6518385,Lake View
471097,7010 SOUTH NORMAL BOULEVARD,41.76672,-87.6374473,Englewood
424408,5237 SOUTH RACINE AVENUE,41.79848,-87.654739,New City
200034,6309 NORTH WESTERN AVENUE,41.996289,-87.689461,West Ridge
443813,1900 EAST 84TH STREET,41.7426207,-87.5780231,Avalon Park
240511,3932 WEST FILLMORE STREET,41.86820520000001,-87.7241536,North Lawndale
456026,4922S SOUTH CORNELL AVENUE,41.8057961,-87.58779670000001,Kenwood
433912,5600 SOUTH BLACKSTONE AVENUE,41.7931976,-87.59049470000002,Hyde Park
199265,929 WEST CULLOM AVENUE,41.960156,-87.6532689,Uptown
242502,5520 WEST QUINCY STREET,41.8776865,-87.7626003,Austin
378012,3637 WEST 63RD PLACE,41.7776467,-87.71447370000001,West Lawn
504607,8945 SOUTH CARPENTER STREET,41.73105200000001,-87.6492719,Washington Heights
136814,2218 NORTH CALIFORNIA AVENUE,41.9223206,-87.6977283,Logan Square
208011,6105 NORTH HAMILTON AVENUE,41.9920635,-87.68325909999999,West Ridge
54979,3614 WEST SHAKESPEARE AVENUE,41.92022539999999,-87.7175852,Logan Square
548337,9734 SOUTH DOBSON AVENUE,41.7175489,-87.59853309999998,Pullman
195404,2120 WEST WAVELAND AVENUE,41.9488458,-87.6819314,North Center
198403,1635 WEST FOSTER AVENUE,41.975932,-87.6710325,Uptown
82365,5057 NORTH KOSTNER AVENUE,41.9734733,-87.7377472,Albany Park
412661,8012 SOUTH MORGAN STREET,41.7482997,-87.6491134,Auburn Gresham
566984,9014 SOUTH EUCLID AVENUE,41.7310783,-87.5770875,Calumet Heights
3159,6677 NORTH NORTHWEST HIGHWAY,42.0025333,-87.815063,Edison Park
526869,9759 SOUTH MERRION AVENUE,41.7168719,-87.5695587,South Deering
238587,2813 SOUTH KEDZIE AVENUE,41.8403435,-87.704412,Little Village
343530,3721 WEST 84TH PLACE,41.7393174,-87.7152502,Ashburn
330499,4331 SOUTH KOMENSKY AVENUE,41.8142456,-87.7247669,Archer Heights
514358,932 WEST 116TH PLACE,41.6825717,-87.6457011,West Pullman
183984,1627 WEST GREGORY STREET,41.9823208,-87.6709292,Andersonville
492248,3242 WEST 109TH STREET,41.6954165,-87.70263390000002,Mount Greenwood
254422,1128 SOUTH MENARD AVENUE,41.8664544,-87.7695307,Austin
393712,4424 SOUTH KILPATRICK AVENUE,41.8123139,-87.7410935,Garfield Ridge
419093,8354 SOUTH ELIZABETH STREET,41.7415783,-87.65498170000002,Auburn Gresham
485761,7224 SOUTH COLES AVENUE,41.7644852,-87.5632764,South Shore
532664,12243 SOUTH WENTWORTH AVENUE,41.6712338,-87.62698520000002,West Pullman
112050,3051 NORTH NORDICA AVENUE,41.9359405,-87.8022132,Montclare
442240,8157 SOUTH THROOP STREET,41.7451197,-87.6556402,Auburn Gresham
541928,9612 SOUTH EGGLESTON AVENUE,41.7193054,-87.6342023,Washington Heights
97183,2950 NORTH AVERS AVENUE,41.935126,-87.7236632,Avondale
258608,2831 WEST POLK STREET,41.8708466,-87.6973203,Garfield Park
61863,2951 NORTH NORDICA AVENUE,41.9340894,-87.8026872,Montclare
114307,4205 NORTH LINDER AVENUE,41.9570485,-87.7644708,Portage Park
68410,5345 WEST MONTROSE AVENUE,41.9603282,-87.76168009999998,Portage Park
283496,3405 SOUTH HALSTED STREET,41.832342,-87.6457933,Bridgeport
259868,834 NORTH LECLAIRE AVENUE,41.8960842,-87.75346009999998,Austin
291027,3563 SOUTH LITUANICA AVENUE,41.8289053,-87.6475095,Bridgeport
357226,5255 SOUTH NAGLE AVENUE,41.7962513,-87.782883,Garfield Ridge
300263,2551 SOUTH LEAVITT STREET,41.8449498,-87.6793384,Lower West Side
560961,956 EAST 133RD STREET,41.6539893,-87.5989196,Riverdale
386070,7014 WEST 63RD PLACE,41.776794,-87.7966102,Clearing
141932,6257 WEST ADDISON STREET,41.945495,-87.7836026,Dunning
367685,8401 SOUTH ROCKWELL STREET,41.741004,-87.6878542,Ashburn
134332,5245 NORTH NATOMA AVENUE,41.9769602,-87.79242590000001,Norwood Park
74993,1838 NORTH NARRAGANSETT AVENUE,41.9139859,-87.78547950000002,Galewood
14667,2081 WEST ESTES AVENUE,42.0109702,-87.6836378,West Ridge
472079,1417 EAST 67TH PLACE,41.7722187,-87.5904807,South Shore
124157,3323 NORTH LARAMIE AVENUE,41.9411617,-87.7566021,Portage Park
422938,8517 SOUTH DORCHESTER AVENUE,41.7399606,-87.5900688,Avalon Park
24074,7732 WEST ADDISON STREET,41.9454425,-87.8209197,Dunning
171424,2658 NORTH DAYTON STREET,41.9307588,-87.65040959999997,Sheffield & DePaul
142662,3250 WEST FOSTER AVENUE,41.9759131,-87.7107311,North Park
427763,7444 SOUTH LANGLEY AVENUE,41.7590494,-87.6081657,Grand Crossing
253923,2452 SOUTH WHIPPLE STREET,41.8466346,-87.7017747,Little Village
498703,10716 SOUTH WESTERN AVENUE,41.6985683,-87.6816802,Morgan Park
483844,2004 WEST 70TH PLACE,41.765892,-87.6739111,Englewood
69449,4731 WEST MONTANA STREET,41.9250604,-87.7451377,Belmont Cragin
180087,3809 NORTH BROADWAY STREET,41.9515464,-87.6493821,Lake View
82036,2448 WEST BALMORAL AVENUE,41.9796717,-87.69129740000002,Lincoln Square
359251,7120 SOUTH CHRISTIANA AVENUE,41.7636398,-87.70675909999999,Chicago Lawn
282340,2240 SOUTH HOYNE AVENUE,41.8508895,-87.6788705,Lower West Side
161836,2055 WEST BYRON STREET,41.9521737,-87.6808933,North Center
59920,2115 NORTH POINT STREET,41.9188187,-87.6957017,Logan Square
463206,7338 SOUTH MARSHFIELD AVENUE,41.7601025,-87.6651858,Englewood
544806,9413 SOUTH VERNON AVENUE,41.7232993,-87.6126704,Roseland
43465,2455 NORTH KILPATRICK AVENUE,41.9259266,-87.7437468,Belmont Cragin
56239,6336 WEST GIDDINGS STREET,41.9667847,-87.7859416,Portage Park
35047,5704 NORTH WESTERN AVENUE,41.98516770000001,-87.6897912,West Ridge
458843,707 EAST 61ST STREET,41.78377800000001,-87.6081588,Woodlawn
556202,12200 SOUTH THROOP STREET,41.6720091,-87.65417640000003,West Pullman
430470,7925 SOUTH LA SALLE STREET,41.7501313,-87.6279433,Chatham
576497,10648 SOUTH AVENUE O,41.701342,-87.54038100000002,East Side
561359,9231 SOUTH WABASH AVENUE,41.7262811,-87.621957,Roseland
325613,6421 SOUTH SACRAMENTO AVENUE,41.7764902,-87.6979615,Chicago Lawn
378097,5217 SOUTH CENTRAL AVENUE,41.7976846,-87.7621696,Garfield Ridge
306303,3515 SOUTH UNION AVENUE,41.8302672,-87.64340909999999,Bridgeport
142023,3614 WEST IRVING PARK ROAD,41.9540025,-87.7184516,Irving Park
487032,8441 SOUTH MUSKEGON AVENUE,41.7415762,-87.5548821,South Chicago
348888,6648 SOUTH KENNETH AVENUE,41.771616,-87.7338333,West Lawn
374142,4433 SOUTH KEDZIE AVENUE,41.8126109,-87.7037904,Brighton Park
73199,5726 WEST WINDSOR AVENUE,41.9634523,-87.77092940000001,Portage Park
273055,3049 SOUTH HOMAN AVENUE,41.8375539,-87.709475,Little Village
306948,3209 SOUTH THROOP STREET,41.8357516,-87.6581195,Bridgeport
365298,6059 SOUTH MAYFIELD AVENUE,41.7817168,-87.76893829999999,Clearing
107757,3517 WEST MELROSE STREET,41.9399535,-87.7151855,Avondale
265059,547 NORTH TRUMBULL AVENUE,41.8916245,-87.71227990000001,Humboldt Park
394923,6425 SOUTH ARTESIAN AVENUE,41.7766398,-87.6844998,Chicago Lawn
328530,6732 SOUTH KILDARE AVENUE,41.7702734,-87.7301577,West Lawn
486632,7545 SOUTH PHILLIPS AVENUE,41.7576578,-87.5648497,South Shore
448689,8517 SOUTH CRANDON AVENUE,41.7402639,-87.5682299,South Chicago
424619,6731 SOUTH EAST END AVENUE,41.772391,-87.5833191,South Shore
174746,2667 NORTH GENEVA TERRACE,41.93121770000001,-87.6452316,Lincoln Park
287855,3501 SOUTH NORMAL AVENUE,41.83017529999999,-87.63810009999997,Bridgeport
121664,5764 NORTH LINCOLN AVENUE,41.9861099,-87.7007715,West Ridge
157694,2636 WEST CARMEN AVENUE,41.9742072,-87.6954666,Lincoln Square
582396,9465 SOUTH EWING AVENUE,41.7235796,-87.5367101,East Side
177188,853 WEST NEWPORT AVENUE,41.9442823,-87.65145190000001,Lake View
3826,7400 NORTH OSCEOLA AVENUE,42.015325,-87.8129842,Edison Park
465646,6110 SOUTH MARSHFIELD AVENUE,41.7826938,-87.66576529999998,Englewood
378717,5819 WEST 63RD PLACE,41.7768006,-87.76739509999999,Clearing
451024,7039 SOUTH GREEN STREET,41.7658569,-87.64537779999998,Englewood
280214,1637 WEST CHICAGO AVENUE,41.8957734,-87.6688083,West Town
167026,1743 NORTH DAMEN AVENUE,41.9136208,-87.677189,Wicker Park
328724,4438 SOUTH TRUMBULL AVENUE,41.8123707,-87.7104569,Brighton Park
197863,1378 WEST WABANSIA AVENUE,41.91375170000001,-87.6629992,West Town
134963,3720 WEST AGATITE AVENUE,41.9621439,-87.7214254,Albany Park
52462,6042 NORTH MONITOR AVENUE,41.9914839,-87.77452459999998,Jefferson Park
56199,2646 WEST CATALPA AVENUE,41.981514,-87.6960689,Lincoln Square
177278,1443 WEST WINNEMAC AVENUE,41.9731929,-87.66637469999998,Uptown
561704,12012 SOUTH NORMAL AVENUE,41.6756036,-87.6349069,West Pullman
576955,10645 SOUTH AVENUE O,41.701404,-87.539807,East Side
158607,2543 NORTH LINDER AVENUE,41.9270825,-87.763343,Belmont Cragin
63419,2816 NORTH MONTCLARE AVENUE,41.93134310000001,-87.8043123,Montclare
309619,1427 NORTH LEAVITT STREET,41.9076565,-87.6819954,Wicker Park
369726,3702 WEST 55TH STREET,41.7936817,-87.71604359999998,West Elsdon
483461,1948 EAST 73RD PLACE,41.7618126,-87.57735859999998,South Shore
382698,6837 SOUTH MAPLEWOOD AVENUE,41.7689886,-87.6867196,Chicago Lawn
322813,1943 WEST CRYSTAL STREET,41.90395460000001,-87.6765271,Wicker Park
268303,2111 SOUTH TRUMBULL AVENUE,41.8531474,-87.71093309999998,Little Village
75554,6262 WEST PETERSON AVENUE,41.9903545,-87.7852309,Norwood Park
208875,2741 NORTH PINE GROVE AVENUE,41.9322204,-87.6407489,Lincoln Park
371899,6646 WEST 63RD PLACE,41.7769215,-87.78796899999998,Clearing
73436,4851 WEST BARRY AVENUE,41.9367565,-87.74887199999998,Belmont Cragin
74527,4711 NORTH SAWYER AVENUE,41.9670209,-87.7093709,Albany Park
258276,1657 SOUTH TRUMBULL AVENUE,41.8573905,-87.7112594,North Lawndale
464237,457 WEST 61ST PLACE,41.7824029,-87.63733609999998,Englewood
567641,11301 SOUTH EMERALD AVENUE,41.6885624,-87.6406973,Roseland
249246,515 NORTH LAWNDALE AVENUE,41.8904677,-87.7183629,Humboldt Park
279854,1051 NORTH HERMITAGE AVENUE,41.9011535,-87.67082740000002,East Village
303395,3145 SOUTH WALLACE STREET,41.8367705,-87.64108420000002,Bridgeport
52049,4610 NORTH AVERS AVENUE,41.9650324,-87.7245478,Albany Park
526623,722 EAST 91ST STREET,41.7295385,-87.6061004,Chatham
451165,6332 SOUTH HOYNE AVENUE,41.7781852,-87.6765906,Englewood
354948,5446 SOUTH RUTHERFORD AVENUE,41.7927241,-87.79066040000002,Garfield Ridge
490103,8430 SOUTH MUSKEGON AVENUE,41.7418465,-87.55541529999998,South Chicago
58621,2452 NORTH SPAULDING AVENUE,41.9263059,-87.7110827,Logan Square
392049,6026 SOUTH MOBILE AVENUE,41.78234129999999,-87.77927940000002,Clearing
350767,2711 WEST 86TH PLACE,41.7360581,-87.6901962,Ashburn
501537,10340 SOUTH TRUMBULL AVENUE,41.7048405,-87.7076881,Mount Greenwood
514759,10227 SOUTH SANGAMON STREET,41.7078308,-87.646282,Washington Heights
295825,166 WEST BURTON PLACE,41.9092954,-87.63424640000002,Old Town
562708,10458 SOUTH CALUMET AVENUE,41.7037744,-87.61517490000001,Roseland
511246,11325 SOUTH PRINCETON AVENUE,41.6881135,-87.629856,Roseland
1208,6956 NORTH OZARK AVENUE,42.007521200000006,-87.82034370000002,Edison Park
391366,6724 SOUTH KOLIN AVENUE,41.7705049,-87.7313583,West Lawn
264041,2330 SOUTH ALBANY AVENUE,41.8490766,-87.7029675,Little Village
493135,10521 SOUTH MILLARD AVENUE,41.7017138,-87.7118821,Mount Greenwood
191414,1919 NORTH FREMONT STREET,41.9165723,-87.65062940000001,Lincoln Park
239920,5029 WEST CHICAGO AVENUE,41.8947143,-87.7518802,Austin
406295,469 EAST BOWEN AVENUE,41.8191287,-87.6139532,Grand Boulevard
457520,8512 SOUTH MARYLAND AVENUE,41.7398398,-87.6039698,Chatham
336870,6154 SOUTH MCVICKER AVENUE,41.779882,-87.7730651,Clearing
287190,1044 NORTH WINCHESTER AVENUE,41.90092670000001,-87.67618320000003,East Village
110728,6049 WEST MONTROSE AVENUE,41.9601172,-87.7788929,Portage Park
356681,2523 WEST 79TH STREET,41.7498118,-87.68629320000002,Ashburn
118725,5024 WEST BERWYN AVENUE,41.97810429999999,-87.752938,"Sauganash,Forest Glen"
95408,2615 WEST FOSTER AVENUE,41.97558770000001,-87.6946406,Lincoln Square
111981,5016 NORTH NEW ENGLAND AVENUE,41.972463,-87.7993017,Norwood Park
269708,3543 WEST BEACH AVENUE,41.90706779999999,-87.7161027,Humboldt Park
457435,3927 SOUTH INDIANA AVENUE,41.8227436,-87.62119009999998,Grand Boulevard
245975,4923 WEST WALTON STREET,41.8974997,-87.7492959,Austin
186217,3315 NORTH GREENVIEW AVENUE,41.9420705,-87.6661398,Lake View
571931,9937 SOUTH AVENUE H,41.714799,-87.532612,East Side
183923,1818 WEST BARRY AVENUE,41.9380119,-87.6743913,North Center
4595,7109 WEST SCHREIBER AVENUE,41.9984398,-87.8052835,Norwood Park
526698,232 WEST 111TH STREET,41.6927109,-87.6292219,Roseland
301282,125 SOUTH BELL AVENUE,41.8791314,-87.6825228,United Center
169856,2043 NORTH WESTERN AVENUE,41.918842,-87.687163,Bucktown
359254,4624 SOUTH KOLIN AVENUE,41.8089256,-87.7332612,Archer Heights
202511,2025 WEST WEBSTER AVENUE,41.92116179999999,-87.67880219999998,Bucktown
128142,6212 NORTH NEWARK AVENUE,41.99341370000001,-87.79834759999999,Norwood Park
174130,6315 NORTH MAGNOLIA AVENUE,41.9968785,-87.66144820000002,Edgewater
329757,5541 SOUTH NOTTINGHAM AVENUE,41.7908364,-87.7986296,Garfield Ridge
10041,6622 NORTH MOZART STREET,42.00191,-87.7012625,West Ridge
358060,4716 WEST 83RD PLACE,41.7414684,-87.7391413,Ashburn
498012,10454 SOUTH TROY STREET,41.7027812,-87.70032690000002,Mount Greenwood
197215,2207 WEST THOME AVENUE,41.9948537,-87.6852458,West Ridge
469450,5037K SOUTH DREXEL BOULEVARD,41.8030234,-87.602971,Kenwood
57571,2427 NORTH TALMAN AVENUE,41.9257137,-87.69352359999998,Logan Square
502325,8756 SOUTH MARSHFIELD AVENUE,41.7340931,-87.6645014,Auburn Gresham
140831,3346 NORTH KILPATRICK AVENUE,41.9421164,-87.74424640000002,Portage Park
17981,1625 WEST LUNT AVENUE,42.008497,-87.6711702,Rogers Park
309050,2143 WEST 19TH STREET,41.8555825,-87.6800676,Lower West Side
533544,9347 SOUTH SANGAMON STREET,41.7234615,-87.646687,Washington Heights
186738,5029 NORTH ASHLAND AVENUE,41.9733238,-87.6690986,Uptown
546764,10108 SOUTH SAINT LAWRENCE AVENUE,41.7106545,-87.6092793,Roseland
110240,3318 WEST MONTROSE AVENUE,41.9614017,-87.7115556,Albany Park
157929,4521 NORTH MONTICELLO AVENUE,41.96358170000001,-87.7190253,Albany Park
521872,1348 WEST 96TH STREET,41.7190295,-87.6573148,Washington Heights
326341,2614 WEST 59TH STREET,41.7866704,-87.68937790000003,Gage Park
315123,1714 WEST 19TH STREET,41.8560894,-87.66929909999998,Lower West Side
49999,2609 WEST WABANSIA AVENUE,41.911951,-87.69255849999998,Humboldt Park
409511,7656 SOUTH CORNELL AVENUE,41.7552701,-87.5847745,South Shore
175135,3635 NORTH JANSSEN AVENUE,41.9481338,-87.66495090000002,Lake View
149797,7034 WEST GRAND AVENUE,41.9238804,-87.80220759999997,Montclare
393853,2612 WEST 47TH STREET,41.8085187,-87.689955,Brighton Park
9765,2458 WEST FITCH AVENUE,42.01153400000001,-87.6926268,West Ridge
503001,9745 SOUTH VANDERPOEL AVENUE,41.716638,-87.66541240000002,Beverly
453996,1634 WEST 71ST STREET,41.7650729,-87.6652098,Englewood
426944,5222 SOUTH LOOMIS BOULEVARD,41.798822,-87.660112,New City
17091,6449 NORTH LAKEWOOD AVENUE,41.999626,-87.66278929999999,Rogers Park
31952,7263 WEST TALCOTT AVENUE,41.9864508,-87.8095469,Norwood Park
172707,4520 NORTH MALDEN STREET,41.9641945,-87.66297970000002,Uptown
289276,814 NORTH HERMITAGE AVENUE,41.8965099,-87.6711821,East Village
425387,7636 SOUTH DANTE AVENUE,41.7557696,-87.58974920000001,South Shore
201222,2258 NORTH LINCOLN PARK WEST,41.9236618,-87.63673659999998,Lincoln Park
535703,8830 SOUTH WINCHESTER AVENUE,41.7329255,-87.6693204,Auburn Gresham
507585,12234 SOUTH BISHOP STREET,41.6711086,-87.65781740000001,West Pullman
399113,8314 SOUTH LAFAYETTE AVENUE,41.74311229999999,-87.6259037,Chatham
248901,62 NORTH WALLER AVENUE,41.8820031,-87.7686228,Austin
357781,6410 SOUTH KOSTNER AVENUE,41.7763438,-87.7327592,West Lawn
566339,12025 SOUTH HARVARD AVENUE,41.6753651,-87.63070909999998,West Pullman
235124,626 NORTH SPRINGFIELD AVENUE,41.89258870000001,-87.72382359999997,Humboldt Park
377113,6403 SOUTH LOREL AVENUE,41.7761872,-87.75533879999998,Clearing
37942,5653 WEST IRVING PARK ROAD,41.9529102,-87.7690998,Portage Park
8490,7020 NORTH MONON AVENUE,42.0096363,-87.7774623,"Sauganash,Forest Glen"
153826,6243 WEST EDDY STREET,41.9445976,-87.7830434,Dunning
13718,7301 NORTH SHERIDAN ROAD,42.0141706,-87.66374509999999,Rogers Park
138180,5954 WEST WILSON AVENUE,41.9641988,-87.77683950000002,Portage Park
214420,2621 NORTH DAYTON STREET,41.9297255,-87.649821,Sheffield & DePaul
285185,920 NORTH WOOD STREET,41.8984576,-87.6725098,East Village
255883,2708 WEST FLOURNOY STREET,41.8731425,-87.69400490000002,Garfield Park
79073,6330 NORTH NOKOMIS AVENUE,41.9957781,-87.76093490000002,"Sauganash,Forest Glen"
513049,9427 SOUTH LOWE AVENUE,41.72249650000001,-87.63932659999998,Washington Heights
433049,5432 SOUTH JUSTINE STREET,41.794849,-87.663655,New City
62691,6095 WEST DICKENS AVENUE,41.9173991,-87.7782385,Belmont Cragin
474931,5527 SOUTH GREEN STREET,41.7930715,-87.6460402,Englewood
387638,3746 WEST 81ST STREET,41.7461191,-87.7163183,Ashburn
3616,6638 NORTH NORTHWEST HIGHWAY,42.0012947,-87.8142551,Edison Park
223559,635 NORTH LONG AVENUE,41.8922279,-87.7602079,Austin
185574,1850 NORTH MARCEY STREET,41.9152615,-87.6572579,Lincoln Park
214025,4853 NORTH HOYNE AVENUE,41.97028140000001,-87.68125450000002,Lincoln Square
365263,6408 SOUTH KEATING AVENUE,41.7762862,-87.7412901,Clearing
30373,3423 NORTH ORANGE AVENUE,41.9419541,-87.823737,Dunning
310155,1504 NORTH BOSWORTH AVENUE,41.90907470000001,-87.6667413,West Town
162278,2010 WEST WAVELAND AVENUE,41.94881210000001,-87.6791594,North Center
543589,9354 SOUTH LEAVITT STREET,41.7230173,-87.67769609999998,Beverly
513017,9326 SOUTH JUSTINE STREET,41.7241039,-87.66184390000002,Washington Heights
402675,7319 SOUTH MARSHFIELD AVENUE,41.7606609,-87.6646375,Englewood
93589,3013 NORTH ALBANY AVENUE,41.93614270000001,-87.70484350000002,Avondale
131680,5818 NORTH KOSTNER AVENUE,41.9869089,-87.7386131,"Sauganash,Forest Glen"
495222,10015 SOUTH CALIFORNIA AVENUE,41.7112495,-87.691358,Beverly
81250,5409 NORTH NEWCASTLE AVENUE,41.97936179999999,-87.79733409999999,Norwood Park
316777,334 WEST 29TH STREET,41.8413186,-87.635561,Armour Square
192247,2263 WEST EASTWOOD AVENUE,41.9655965,-87.686207,Lincoln Square
519821,319 WEST 109TH STREET,41.6959425,-87.6312046,Roseland
498348,11001 SOUTH CENTRAL PARK AVENUE,41.6930989,-87.7103647,Mount Greenwood
306571,1461 WEST AUGUSTA BOULEVARD,41.89958,-87.6648306,West Town
57438,3718 WEST CORNELIA AVENUE,41.9448482,-87.7207989,Avondale
499785,3959 WEST 105TH STREET,41.7020496,-87.72055470000002,Mount Greenwood
308421,1269 NORTH CLYBOURN AVENUE,41.9052635,-87.6412772,Old Town
49125,5321 WEST GRACE STREET,41.9493994,-87.76039279999998,Portage Park
377373,7953 SOUTH KILPATRICK AVENUE,41.7476168,-87.73700490000002,Ashburn
70566,4841 NORTH BERNARD STREET,41.9696046,-87.7143321,Albany Park
81980,4946 NORTH KEELER AVENUE,41.9713672,-87.73335159999998,Albany Park
369854,5642 SOUTH FRANCISCO AVENUE,41.7905427,-87.69642459999999,Gage Park
552688,8724 SOUTH DOCTOR MARTIN LUTHER KING JR DRIVE,41.7357019,-87.6148151,Chatham
448395,2129 WEST 79TH STREET,41.7500559,-87.6768552,Auburn Gresham
40413,3301 WEST GLENLAKE AVENUE,41.9918994,-87.7117396,North Park
116647,5453 NORTH NORTHWEST HIGHWAY,41.9799717,-87.7763025,Jefferson Park
178722,4447 NORTH PAULINA STREET,41.96301010000001,-87.67043790000002,Uptown
134641,1623 NORTH KIMBALL AVENUE,41.9108644,-87.7114517,Humboldt Park
46194,5860 NORTH NORTHWEST HIGHWAY,41.9877755,-87.791528,Norwood Park
239234,2619 SOUTH HAMLIN AVENUE,41.8437369,-87.7193538,Little Village
439550,8054 SOUTH HALSTED STREET,41.74733670000001,-87.6443713,Auburn Gresham
52519,6754 WEST RASCHER AVENUE,41.98051829999999,-87.79707990000001,Norwood Park
80130,2917 WEST PALMER STREET,41.921357,-87.70069559999997,Logan Square
313394,3649 SOUTH RACINE AVENUE,41.827267,-87.655039,Bridgeport
48095,5013 WEST BERENICE AVENUE,41.9503919,-87.75279259999998,Portage Park
434124,7241 SOUTH PEORIA STREET,41.7621338,-87.6464865,Englewood
386904,8140 SOUTH MAPLEWOOD AVENUE,41.7452029,-87.68674200000002,Ashburn
349450,3352 WEST 66TH PLACE,41.7727285,-87.70744640000002,Chicago Lawn
539754,11550 SOUTH ABERDEEN STREET,41.6834771,-87.64969920000001,West Pullman
310512,1212 WEST TAYLOR STREET,41.8695773,-87.6576775,"Little Italy, UIC"
405253,8218 SOUTH INDIANA AVENUE,41.7449455,-87.61993340000002,Chatham
266332,1453 NORTH LAWLER AVENUE,41.9074474,-87.75189190000002,Austin
406979,1642 EAST 56TH STREET,41.793838,-87.584661,Hyde Park
16342,1828 WEST TOUHY AVENUE,42.0128447,-87.67685390000003,Rogers Park
568091,10424 SOUTH FOREST AVENUE,41.7046602,-87.616421,Roseland
584,6716 NORTH OLYMPIA AVENUE,42.0032193,-87.8128459,Edison Park
488385,7743 SOUTH SOUTH SHORE DRIVE,41.75635,-87.5518667,South Shore
238173,1510 NORTH LINDER AVENUE,41.90798970000001,-87.76363190000002,Austin
73388,5139 WEST GRACE STREET,41.94947929999999,-87.7561788,Portage Park
394683,2761 WEST 85TH STREET,41.7391294,-87.6921095,Ashburn
566971,12735 SOUTH SANGAMON STREET,41.6620561,-87.6447629,West Pullman
372533,3828 WEST 68TH STREET,41.76981129999999,-87.7187969,West Lawn
281166,2259 WEST 21ST PLACE,41.85279660000001,-87.6830467,Lower West Side
572581,2520 EAST 91ST STREET,41.7301875,-87.56253559999998,Calumet Heights
36926,5527 NORTH MASON AVENUE,41.9819541,-87.776563,Jefferson Park
51701,7002 WEST NORTH AVENUE,41.9092654,-87.8005442,Galewood
343199,5312 SOUTH TRIPP AVENUE,41.7963516,-87.72965190000002,West Elsdon
489226,2823 EAST 77TH STREET,41.75548660000001,-87.5556762,South Shore
325635,5653 SOUTH NAGLE AVENUE,41.7889924,-87.78261850000001,Garfield Ridge
337556,5131 SOUTH NEWLAND AVENUE,41.7985388,-87.795129,Garfield Ridge
178427,500 WEST BARRY AVENUE,41.9379472,-87.642108,Lake View
165736,3963 NORTH CLARK STREET,41.95425170000001,-87.6619205,Wrigleyville
361392,8187 SOUTH CICERO AVENUE,41.7436813,-87.7403018,Ashburn
518924,1710 WEST 99TH STREET,41.7141926,-87.6658746,Beverly
98441,5011 WEST WOLFRAM STREET,41.9321569,-87.75204570000002,Belmont Cragin
378403,8517 SOUTH KNOX AVENUE,41.7377103,-87.73701640000002,Ashburn
232298,3504 WEST 26TH STREET,41.8445728,-87.71264040000001,Little Village
331424,3622 WEST 65TH STREET,41.7753657,-87.7138824,West Lawn
54986,5727 NORTH NEWCASTLE AVENUE,41.9858836,-87.79718790000003,Norwood Park
320266,224 WEST 24TH PLACE,41.8484618,-87.6329089,Chinatown
7613,6604 NORTH FAIRFIELD AVENUE,42.0014553,-87.6988288,West Ridge
539942,12527 SOUTH EGGLESTON AVENUE,41.66615520000001,-87.6328134,West Pullman
298718,50 WEST CERMAK ROAD,41.8533617,-87.628782,Near South Side
118761,6111 WEST GRACE STREET,41.949157,-87.779635,Dunning
380186,7811 SOUTH KILBOURN AVENUE,41.750714,-87.73389240000002,Ashburn
55746,3577 WEST LYNDALE STREET,41.9216459,-87.7166513,Logan Square
138962,3747 NORTH SAYRE AVENUE,41.9485651,-87.800689,Dunning
31758,5500 NORTH OSCEOLA AVENUE,41.9794854,-87.8129903,Norwood Park
286142,2324 WEST IOWA STREET,41.8978394,-87.68548050000003,Ukrainian Village
238405,1258 NORTH CENTRAL AVENUE,41.9038213,-87.76598100000002,Austin
370953,5229 SOUTH TRIPP AVENUE,41.7977491,-87.7291355,Archer Heights
561649,9918 SOUTH LAFAYETTE AVENUE,41.713819,-87.6251625,Roseland
19175,7644 NORTH EASTLAKE TERRACE,42.0205263,-87.665256,Rogers Park
313446,1122 NORTH CLARK STREET,41.9026605,-87.6318686,River North
570975,10848 SOUTH AVENUE O,41.697731,-87.540421,East Side
397669,6536 SOUTH ROSS AVENUE,41.7755312,-87.63072559999998,Englewood
409874,7747 SOUTH WINCHESTER AVENUE,41.7525341,-87.6716985,Auburn Gresham
469716,6615 SOUTH WOODLAWN AVENUE,41.774569,-87.59575090000001,Woodlawn
333049,4329 WEST 47TH STREET,41.8074412,-87.73179240000002,Archer Heights
8164,2940 WEST JEROME STREET,42.0185546,-87.7035797,West Ridge
134528,5388 WEST ARMSTRONG AVENUE,41.98503779999999,-87.7632387,Jefferson Park
308070,3617 SOUTH WINCHESTER AVENUE,41.8280533,-87.67371379999999,Mckinley Park
199910,1141 WEST ROSCOE STREET,41.9433709,-87.6582191,Lake View
368935,5553 SOUTH ALBANY AVENUE,41.79198870000001,-87.7007818,Gage Park
363607,6541 SOUTH ROCKWELL STREET,41.77435120000001,-87.68810699999997,Chicago Lawn
524681,11616 SOUTH LONGWOOD DRIVE,41.6823422,-87.67503470000003,Morgan Park
297792,1849 SOUTH WABASH AVENUE,41.8567595,-87.62517270000002,Near South Side
434499,4515 SOUTH PRAIRIE AVENUE,41.8125083,-87.6192754,Grand Boulevard
100767,4617 NORTH KENNETH AVENUE,41.9650331,-87.7396768,Irving Park
472558,1512 EAST 68TH STREET,41.7717529,-87.58813509999997,South Shore
149768,5405 NORTH NORMANDY AVENUE,41.9794744,-87.7936102,Norwood Park
236322,2715 WEST EVERGREEN AVENUE,41.9054789,-87.695164,Humboldt Park
401270,7841 SOUTH WOOD STREET,41.75092460000001,-87.66798309999999,Auburn Gresham
561641,11647 SOUTH HALE AVENUE,41.6814017,-87.6724553,Morgan Park
346049,5952 SOUTH NASHVILLE AVENUE,41.7833891,-87.78664640000002,Clearing
314976,372 WEST ONTARIO STREET,41.8933938,-87.6384555,River North
259960,4700 WEST MONROE STREET,41.8795445,-87.7429738,Austin
458248,6101 SOUTH WABASH AVENUE,41.7835505,-87.6235003,Washington Park
22396,3505 NORTH PARIS AVENUE,41.9433289,-87.82995770000002,Dunning
68049,6779 WEST TALCOTT AVENUE,41.98108010000001,-87.79705320000002,Norwood Park
241545,1335 NORTH CICERO AVENUE,41.9046847,-87.7437978,Austin
398312,6464 SOUTH DORCHESTER AVENUE,41.77686,-87.59197950000002,Woodlawn
220421,3237 WEST PIERCE AVENUE,41.9089566,-87.7085318,Humboldt Park
165995,1916 NORTH ELSTON AVENUE,41.916804600000006,-87.6671186,Bucktown
52046,4508 NORTH CENTRAL AVENUE,41.9627259,-87.7676058,Portage Park
88450,5116 NORTH MONTICELLO AVENUE,41.9743503,-87.719957,North Park
380633,4944 SOUTH WESTERN AVENUE,41.8034328,-87.6846432,Gage Park
390544,6855 WEST 64TH STREET,41.7754744,-87.7931333,Clearing
113036,3946 NORTH FAIRFIELD AVENUE,41.9534691,-87.69711840000002,Irving Park
195759,1619 WEST MONTROSE AVENUE,41.9614193,-87.6701254,Lake View
61460,5254 WEST BELLE PLAINE AVENUE,41.95531610000001,-87.7593832,Portage Park
81123,6106 NORTH KEELER AVENUE,41.9921704,-87.73402759999998,"Sauganash,Forest Glen"
24109,7655 WEST NORWOOD STREET,41.989382,-87.81888459999998,Norwood Park
432856,1769 EAST 79TH STREET,41.7513136,-87.58059890000001,South Chicago
246243,1421 NORTH HARDING AVENUE,41.9069815,-87.7249641,Humboldt Park
70810,6304 NORTH MERRIMAC AVENUE,41.9953024,-87.7843396,Norwood Park
455192,1226 1/2 EAST MADISON PARK,41.8036081,-87.5955847,Kenwood
520592,126 EAST 120TH STREET,41.6764506,-87.6193553,West Pullman
274024,708 NORTH TROY STREET,41.89407420000001,-87.7055301,Humboldt Park
117671,6130 WEST PATTERSON AVENUE,41.946875,-87.78026690000002,Dunning
17869,1615 WEST JONQUIL TERRACE,42.0207276,-87.6713051,Rogers Park
568682,9244 SOUTH ASHLAND AVENUE,41.72525200000001,-87.663094,Washington Heights
106989,2718 NORTH WESTERN AVENUE,41.93094620000001,-87.6881652,Logan Square
206257,4849 NORTH PAULINA STREET,41.97032,-87.67072209999998,Uptown
81849,2174 NORTH NATCHEZ AVENUE,41.920081,-87.78932990000001,Belmont Cragin
396329,6443 SOUTH FAIRFIELD AVENUE,41.77596060000001,-87.6918247,Chicago Lawn
278510,3713 SOUTH WOOD STREET,41.8263505,-87.6699953,Mckinley Park
78592,4037 WEST SCHUBERT AVENUE,41.9298231,-87.7284636,Logan Square
341944,2810 WEST 39TH PLACE,41.82211820000001,-87.69515809999999,Brighton Park
118874,2208 NORTH MILWAUKEE AVENUE,41.9207673,-87.69439670000001,Logan Square
313602,914 NORTH MOHAWK STREET,41.8989653,-87.64138990000002,River North
245000,3857 WEST MONROE STREET,41.8795755,-87.723025,Garfield Park
252371,3445 WEST DIVISION STREET,41.90227520000001,-87.7132665,Humboldt Park
470680,4227 SOUTH CHAMPLAIN AVENUE,41.8177437,-87.6101448,Grand Boulevard
134742,5709 NORTH MENARD AVENUE,41.9850533,-87.77286140000002,Jefferson Park
505880,12241 SOUTH LA SALLE STREET,41.6712745,-87.6257641,West Pullman
339822,3812 WEST 64TH STREET,41.7771355,-87.7184213,West Lawn
308114,720 WEST EVERGREEN AVENUE,41.9065732,-87.646975,River North
211005,4723 NORTH HERMITAGE AVENUE,41.9677852,-87.6722577,Uptown
453665,2150 WEST 71ST PLACE,41.76408,-87.6779384,Englewood
56651,4044 NORTH AVERS AVENUE,41.9550826,-87.7242721,Irving Park
455436,7529 SOUTH STONY ISLAND AVENUE,41.75843560000001,-87.5855101,South Shore
132777,5112 WEST FLETCHER STREET,41.9380234,-87.7548381,Belmont Cragin
456126,8356 SOUTH LA SALLE STREET,41.7419091,-87.6282804,Chatham
266249,1341 NORTH LAWNDALE AVENUE,41.9057531,-87.7187814,Humboldt Park
149209,5349 WEST BYRON STREET,41.9511807,-87.76149190000002,Portage Park
382291,5240 SOUTH MELVINA AVENUE,41.7967662,-87.7773272,Garfield Ridge
147666,1942 NORTH KEELER AVENUE,41.9165667,-87.7316814,Hermosa
299750,218 WEST HUBBARD STREET,41.89022960000001,-87.634908,River North
535323,2145 EAST 98TH PLACE,41.7162039,-87.57198029999998,South Deering
424432,936 WEST 74TH STREET,41.7598273,-87.6481218,Englewood
214294,5614 NORTH WINTHROP AVENUE,41.9839472,-87.65823990000001,Edgewater
515859,20 EAST 117TH STREET,41.6818456,-87.621923,West Pullman
423337,2106 WEST 71ST STREET,41.7649826,-87.6763269,Englewood
101350,4538 WEST PALMER STREET,41.9210466,-87.7406503,Hermosa
271903,3029 WEST CULLERTON STREET,41.8543942,-87.7015305,Little Village
52208,2235 NORTH NAGLE AVENUE,41.9211041,-87.78631750000002,Belmont Cragin
167651,5607 NORTH BROADWAY STREET,41.983945,-87.6597678,Edgewater
412582,8017 SOUTH CHAPPEL AVENUE,41.7492633,-87.5744481,South Chicago
565406,9048 SOUTH MERRILL AVENUE,41.7302237,-87.5722325,Calumet Heights
104222,3407 WEST WILSON AVENUE,41.9646252,-87.7136005,Albany Park
151373,6204 NORTH MAPLEWOOD AVENUE,41.9942719,-87.6937499,West Ridge
542842,8950 SOUTH THROOP STREET,41.7307472,-87.65592779999999,Washington Heights
234804,1536 SOUTH KILDARE AVENUE,41.8594802,-87.73255520000002,North Lawndale
287215,1843 WEST FULTON STREET,41.8865837,-87.6738069,United Center
232822,5032 WEST CONGRESS PARKWAY,41.874221,-87.75056490000001,Austin
116867,3615 NORTH FRANCISCO AVENUE,41.9471883,-87.7002118,Irving Park
63511,3310 NORTH RIDGEWAY AVENUE,41.9413195,-87.72134100000002,Avondale
60836,4908 NORTH FRANCISCO AVENUE,41.97096079999999,-87.70148499999998,Lincoln Square
440050,4515 SOUTH FORRESTVILLE AVENUE,41.8126104,-87.61241009999998,Grand Boulevard
418068,7952 SOUTH DOBSON AVENUE,41.7497777,-87.59938819999998,Chatham
524487,320 EAST KENSINGTON AVENUE,41.6844047,-87.6158658,West Pullman
33284,4538 NORTH ANTHON AVENUE,41.9625128,-87.84099309999998,O'Hare
104293,3915 WEST DEVON AVENUE,41.9970101,-87.72715749999998,"Sauganash,Forest Glen"
137366,5861 NORTH KINGSDALE AVENUE,41.9863407,-87.7440463,"Sauganash,Forest Glen"
444713,8150 SOUTH CLYDE AVENUE,41.7465027,-87.5737561,South Chicago
321056,3301 SOUTH GILES AVENUE,41.83462460000001,-87.61911540000001,Douglas
51353,6155 NORTH WASHTENAW AVENUE,41.9937899,-87.69679570000002,West Ridge
232872,754 SOUTH KEDZIE AVENUE,41.8712139,-87.7061853,Garfield Park
442698,5806 SOUTH BISHOP STREET,41.78835150000001,-87.66107149999998,Englewood
328959,6042 WEST 60TH STREET,41.7835417,-87.7734223,Clearing
295499,1260 NORTH WELLS STREET,41.905644,-87.6347989,Old Town
459185,6839 SOUTH WOOD STREET,41.7691674,-87.66852790000002,Englewood
565884,9033 SOUTH CREGIER AVENUE,41.7305434,-87.5801473,Calumet Heights
450620,8300 SOUTH GREEN STREET,41.743216,-87.6453525,Auburn Gresham
20784,6616 NORTH NEWGARD AVENUE,42.00232800000001,-87.66712170000002,Rogers Park
227816,1612 SOUTH WASHTENAW AVENUE,41.8588321,-87.693448,North Lawndale
170377,1408 WEST CUYLER AVENUE,41.9555031,-87.6647316,Lake View
217173,1020 NORTH MONTICELLO AVENUE,41.8997485,-87.7179483,Humboldt Park
74706,5146 WEST WABANSIA AVENUE,41.91153660000001,-87.7545554,Austin
34273,7516 WEST FOSTER AVENUE,41.974551,-87.8151775,Norwood Park
151389,5755 WEST PENSACOLA AVENUE,41.9592915,-87.77180329999999,Portage Park
284989,600 WEST 26TH STREET,41.8455949,-87.64174179999998,Bridgeport
336181,4643 SOUTH WHIPPLE STREET,41.8087233,-87.7000799,Brighton Park
262336,3128 WEST POLK STREET,41.8713441,-87.7045703,Garfield Park
548881,524 WEST 107TH STREET,41.6999082,-87.63631720000002,Roseland
361346,3623 WEST 66TH STREET,41.773118200000006,-87.7138317,West Lawn
52075,6237 NORTH FAIRFIELD AVENUE,41.9951015,-87.69804509999999,West Ridge
146078,1701 NORTH KEATING AVENUE,41.9116021,-87.7444893,Austin
218009,2823 SOUTH SAWYER AVENUE,41.8401228,-87.7058945,Little Village
413747,2133 WEST 54TH STREET,41.79551,-87.67813699999998,New City
262903,2665 WEST MADISON STREET,41.8808554,-87.6934883,Garfield Park
509650,24 EAST 99TH PLACE,41.7137596,-87.6227587,Roseland
444159,1444 WEST 83RD STREET,41.7432795,-87.66010190000002,Auburn Gresham
413005,6629 SOUTH WOLCOTT AVENUE,41.7730321,-87.6710879,Englewood
461035,6522 SOUTH PAULINA STREET,41.7750733,-87.66687259999998,Englewood
374916,8023 SOUTH KEDZIE AVENUE,41.7473003,-87.7019936,Ashburn
434901,5322 SOUTH CORNELL AVENUE,41.7988299,-87.5859313,Hyde Park
339716,5030 SOUTH LAWLER AVENUE,41.8011068,-87.74937729999998,Garfield Ridge
237661,4142 WEST KAMERLING AVENUE,41.9055006,-87.7305796,Humboldt Park
332360,4800 SOUTH KOSTNER AVENUE,41.805794,-87.733611,Archer Heights
563557,9230 SOUTH GREENWOOD AVENUE,41.7266422,-87.5975834,Burnside
412080,5548 SOUTH BLACKSTONE AVENUE,41.7937145,-87.590622,Hyde Park
43157,2107 NORTH CALIFORNIA AVENUE,41.9197568,-87.6970475,Logan Square
23728,3246 NORTH OSAGE AVENUE,41.9391992,-87.82536929999998,Dunning
508293,8751 SOUTH THROOP STREET,41.7344397,-87.655416,Auburn Gresham
487228,8321 SOUTH BURLEY AVENUE,41.7441445,-87.5452035,South Chicago
177703,1711 WEST TERRA COTTA PLACE,41.9277002,-87.67174159999998,Lincoln Park
38995,5504 NORTH MARMORA AVENUE,41.981335,-87.77593370000002,Jefferson Park
470447,6552 SOUTH CHAMPLAIN AVENUE,41.77520379999999,-87.6097395,Woodlawn
253561,1129 NORTH CICERO AVENUE,41.9013521,-87.7443858,Austin
35550,3041 NORTH NOTTINGHAM AVENUE,41.9356144,-87.803586,Montclare
498688,10648 SOUTH WESTERN AVENUE,41.6994159,-87.68170529999998,Beverly
178719,4735 NORTH MALDEN STREET,41.9682302,-87.6624403,Uptown
80042,6251 NORTH NEWCASTLE AVENUE,41.9949238,-87.796327,Norwood Park
252395,1101 NORTH LAWNDALE AVENUE,41.9010376,-87.71866,Humboldt Park
110358,3115 NORTH LOTUS AVENUE,41.9372836,-87.762499,Belmont Cragin
568433,12511 SOUTH STEWART AVENUE,41.6665765,-87.63161629999998,West Pullman
166834,650 WEST DIVERSEY PARKWAY,41.9330481,-87.64569709999998,Lake View
563619,11809 SOUTH INDIANA AVENUE,41.6795691,-87.6175291,West Pullman
223780,4903 WEST QUINCY STREET,41.8774646,-87.74745949999998,Austin
389455,5143 SOUTH NEWCASTLE AVENUE,41.7982463,-87.79268950000002,Garfield Ridge
168490,1716 WEST HENDERSON STREET,41.9426531,-87.6719115,Lake View
50567,4654 NORTH LECLAIRE AVENUE,41.9658594,-87.7553204,Portage Park
541647,10234 SOUTH VINCENNES AVENUE,41.7079312,-87.6561405,Washington Heights
491210,11404 SOUTH CENTRAL PARK AVENUE,41.6856986,-87.71065229999998,Mount Greenwood
253699,922 NORTH LAWNDALE AVENUE,41.89799910000001,-87.7191031,Humboldt Park
148027,2512 NORTH ARTESIAN AVENUE,41.9271685,-87.689275,Logan Square
488027,7314 SOUTH COLES AVENUE,41.7628925,-87.5617665,South Shore
75356,4644 NORTH CENTRAL AVENUE,41.9654619,-87.7676417,Portage Park
255962,1306 NORTH ROCKWELL STREET,41.9050646,-87.6922196,Humboldt Park
519500,320 EAST 131ST PLACE,41.6569341,-87.61392509999997,Riverdale
105335,4543 NORTH LONG AVENUE,41.9637986,-87.76217120000003,Portage Park
60612,3523 WEST SHAKESPEARE AVENUE,41.9198798,-87.7146041,Logan Square
181263,2520 NORTH LAKEVIEW AVENUE,41.9288914,-87.6398718,Lincoln Park
179574,2939 NORTH LINCOLN AVENUE,41.9354408,-87.6621566,Lake View
140854,4019 NORTH TROY STREET,41.9545856,-87.70654470000002,Irving Park
246988,3810 WEST DIVISION STREET,41.9029279,-87.72196020000001,Humboldt Park
81210,5515 NORTH FRANCISCO AVENUE,41.981834,-87.70129490000002,Lincoln Square
486133,8542 SOUTH ESSEX AVENUE,41.7395921,-87.5638973,South Chicago
41869,4206 NORTH WESTERN AVENUE,41.9579437,-87.68887840000002,North Center
122824,6052 NORTH MOZART STREET,41.9919292,-87.70096170000002,West Ridge
98641,2653 WEST LOGAN BOULEVARD,41.9279189,-87.69473149999997,Logan Square
77179,5002 WEST BERWYN AVENUE,41.9781083,-87.7522106,"Sauganash,Forest Glen"
63652,1905 NORTH NEWCASTLE AVENUE,41.9147092,-87.7958709,Galewood
105813,2414 NORTH FRANCISCO AVENUE,41.9253157,-87.70011159999999,Logan Square
502368,8909 SOUTH HERMITAGE AVENUE,41.731743,-87.66630970000001,Auburn Gresham
462660,8244 SOUTH WINCHESTER AVENUE,41.7434744,-87.6720517,Auburn Gresham
81161,2424 WEST FARRAGUT AVENUE,41.977101,-87.69035090000001,Lincoln Square
220302,717 NORTH TROY STREET,41.8942836,-87.7049968,Humboldt Park
112168,5522 WEST NEWPORT AVENUE,41.94336970000001,-87.76520040000003,Portage Park
210305,2006 WEST ADDISON STREET,41.947047,-87.6789381,North Center
116450,2530 NORTH CAMPBELL AVENUE,41.927646,-87.6904641,Logan Square
391158,5321 SOUTH LOREL AVENUE,41.7959676,-87.75605440000002,Garfield Ridge
172797,4642 NORTH RAVENSWOOD AVENUE,41.9663729,-87.6750801,Lincoln Square
556018,11637 SOUTH RACINE AVENUE,41.682029,-87.65150729999998,West Pullman
288255,1340 NORTH DEAN STREET,41.9066356,-87.670395,Wicker Park
332013,5708 SOUTH MERRIMAC AVENUE,41.7883825,-87.77828559999998,Garfield Ridge
198211,1116 WEST MONTANA STREET,41.926511,-87.6568292,Sheffield & DePaul
525379,223 EAST 90TH PLACE,41.7298347,-87.61795790000002,Chatham
566022,305 EAST 90TH PLACE,41.72982860000001,-87.61724749999998,Chatham
218953,2230 SOUTH TRUMBULL AVENUE,41.8507784,-87.71157109999999,Little Village
456860,8137 SOUTH CARPENTER STREET,41.7458474,-87.6497184,Auburn Gresham
209940,3332 NORTH RACINE AVENUE,41.9423487,-87.65950720000002,Lake View
559400,13106 SOUTH INGLESIDE AVENUE,41.6568506,-87.59977459999998,Riverdale
467681,5700 SOUTH LOWE AVENUE,41.7906016,-87.64167320000001,Englewood
489957,8210 SOUTH SAGINAW AVENUE,41.7459838,-87.5603495,South Chicago
314209,951 NORTH CAMBRIDGE AVENUE,41.8994381,-87.6417118,River North
468112,4549 SOUTH WABASH AVENUE,41.811689,-87.6241572,Grand Boulevard
576,6757 NORTH OSHKOSH AVENUE,42.0038536,-87.8163942,Edison Park
361150,6010 SOUTH KOMENSKY AVENUE,41.7837245,-87.7243974,West Lawn
3055,6877 NORTH NORTHWEST HIGHWAY,42.0061043,-87.82077170000002,Edison Park
274247,2817 SOUTH SAWYER AVENUE,41.84032929999999,-87.7059035,Little Village
551742,10626 SOUTH OGLESBY AVENUE,41.7019029,-87.5653603,South Deering
267645,4651 WEST JACKSON BOULEVARD,41.8766657,-87.7422442,Austin
109923,2645 WEST LELAND AVENUE,41.96650770000001,-87.6955495,Lincoln Square
427435,4554 SOUTH PAULINA STREET,41.810618,-87.667716,New City
430762,7825 SOUTH ELLIS AVENUE,41.7523923,-87.6000503,Grand Crossing
315618,1756 WEST GRAND AVENUE,41.8911937,-87.6718011,West Town
452226,6446 SOUTH VERNON AVENUE,41.7770864,-87.6146151,Woodlawn
81036,5108 WEST BERTEAU AVENUE,41.9571685,-87.7552828,Portage Park
311908,2047 WEST CERMAK ROAD,41.8519528,-87.6776593,Lower West Side
169304,5249 NORTH ASHLAND AVENUE,41.9776164,-87.6693715,Andersonville
360720,5625 SOUTH MELVINA AVENUE,41.7898197,-87.7765497,Garfield Ridge
147728,4714 NORTH LEAMINGTON AVENUE,41.966582,-87.7565541,Portage Park
118314,5278 NORTH LARNED AVENUE,41.9781802,-87.7612527,Jefferson Park
69278,5250 WEST GRAND AVENUE,41.9175832,-87.75766999999998,Belmont Cragin
394136,5340 SOUTH AVERS AVENUE,41.7957271,-87.7198343,West Elsdon
281513,1655 WEST SUPERIOR STREET,41.8949465,-87.6694438,West Town
193953,2132 NORTH WINCHESTER AVENUE,41.920570700000006,-87.6767569,Bucktown
252296,2237 SOUTH CENTRAL PARK AVENUE,41.8505501,-87.7146977,Little Village
46277,2325 NORTH SPAULDING AVENUE,41.9236525,-87.710187,Logan Square
359309,3960 SOUTH ARTESIAN AVENUE,41.8211659,-87.68633249999998,Brighton Park
266580,2846 WEST WARREN BOULEVARD,41.8821834,-87.69807490000002,Garfield Park
453552,5811 SOUTH PAULINA STREET,41.7880769,-87.6665389,Englewood
417696,1428 EAST 55TH STREET,41.79565770000001,-87.5905551,Hyde Park
544228,528 EAST 89TH STREET,41.7331186,-87.61078540000003,Chatham
67303,4044 NORTH KOLMAR AVENUE,41.9549469,-87.7419878,Irving Park
275526,3055 SOUTH BONFIELD STREET,41.839173,-87.6532656,Bridgeport
358812,5305 SOUTH NOTTINGHAM AVENUE,41.795592600000006,-87.79880959999998,Garfield Ridge
416937,662 EAST 46TH STREET,41.8115251,-87.6091031,Grand Boulevard
261038,1648 SOUTH HARDING AVENUE,41.8574669,-87.7239182,North Lawndale
9560,6408 NORTH WESTERN AVENUE,41.998082,-87.6901935,West Ridge
306102,2818 SOUTH KEELEY STREET,41.8422542,-87.6552308,Bridgeport
237892,2302 SOUTH PULASKI ROAD,41.8496951,-87.7250677,North Lawndale
318032,336 EAST OHIO STREET,41.8929048,-87.6190623,Streeterville
253860,4023 WEST WILCOX STREET,41.878651700000006,-87.7265988,Garfield Park
18731,7335 NORTH WESTERN AVENUE,42.01495739999999,-87.689863,West Ridge
215719,734 NORTH SAINT LOUIS AVENUE,41.894744,-87.7141066,Humboldt Park
183240,929 WEST FLETCHER STREET,41.9387609,-87.6528332,Lake View
199165,2756 NORTH WOLCOTT AVENUE,41.9314276,-87.6754021,Lincoln Park
8961,2728 WEST JEROME STREET,42.0186432,-87.6985036,West Ridge
126732,4819 WEST ADDISON STREET,41.9459093,-87.7479619,Portage Park
274896,1217 WEST 31ST STREET,41.8376567,-87.65678340000002,Bridgeport
278213,1046 WEST FULTON MARKET,41.8869375,-87.65407059999998,West Loop
492815,10645 SOUTH CALIFORNIA AVENUE,41.6995345,-87.69091209999998,Beverly
117341,3924 WEST LAWRENCE AVENUE,41.9685215,-87.72661190000002,Albany Park
368033,8626 SOUTH KILBOURN AVENUE,41.7356644,-87.73389959999999,Ashburn
86562,3420 WEST CULLOM AVENUE,41.9594357,-87.7139755,Irving Park
579176,8756 SOUTH BALTIMORE AVENUE,41.7357257,-87.54912370000002,South Chicago
422706,633 WEST PERSHING ROAD,41.822721,-87.642596,New City
339537,5422 SOUTH NEWLAND AVENUE,41.7933198,-87.79551059999999,Garfield Ridge
108667,1741 NORTH ARTESIAN AVENUE,41.9134189,-87.6881883,Wicker Park
416107,6645 SOUTH YALE AVENUE,41.7732709,-87.6314022,Englewood
430049,4539 SOUTH DOCTOR MARTIN LUTHER KING JR DRIVE,41.811833,-87.6160744,Grand Boulevard
445140,1336 EAST 87TH STREET,41.737044,-87.5920151,Avalon Park
441722,8212 SOUTH VERNON AVENUE,41.7452347,-87.6138886,Chatham
49872,1710 NORTH CENTRAL PARK AVENUE,41.912180600000006,-87.71684549999998,Humboldt Park
374462,7114 WEST 64TH STREET,41.7757825,-87.79909659999998,Clearing
349234,8447 SOUTH KILBOURN AVENUE,41.738922,-87.73344250000002,Ashburn
2573,6734 NORTH OCTAVIA AVENUE,42.0036096,-87.80946180000002,Edison Park
526728,245 WEST 111TH PLACE,41.6914061,-87.6296238,Roseland
109623,4033 NORTH MAJOR AVENUE,41.9541941,-87.76918959999998,Portage Park
456312,7011 SOUTH THROOP STREET,41.7664447,-87.656307,Englewood
568018,10552 SOUTH WABASH AVENUE,41.7019499,-87.6224462,Roseland
536683,10518 SOUTH FOREST AVENUE,41.7029986,-87.6163894,Roseland
52108,2835 WEST BRYN MAWR AVENUE,41.9828709,-87.7004363,Lincoln Square
458706,5210 SOUTH GREEN STREET,41.799378,-87.64679,New City
125495,1723 NORTH WASHTENAW AVENUE,41.9128121,-87.69439859999999,Humboldt Park
524235,8801 SOUTH PAXTON AVENUE,41.7351449,-87.5705245,Calumet Heights
165658,1928 NORTH PAULINA STREET,41.9171277,-87.670917,Bucktown
405735,4453 SOUTH ELLIS AVENUE,41.81362100000001,-87.601423,Kenwood
80327,5135 WEST WELLINGTON AVENUE,41.9348481,-87.7554875,Belmont Cragin
276156,1317 WEST 31ST PLACE,41.83674050000001,-87.6591641,Bridgeport
119924,5728 WEST LAWRENCE AVENUE,41.96795570000001,-87.77096850000002,Portage Park
146834,3934 NORTH DRAKE AVENUE,41.9530744,-87.71685740000002,Irving Park
280017,3117 SOUTH NORMAL AVENUE,41.8376068,-87.63868659999999,Bridgeport
367697,5210 SOUTH NORMANDY AVENUE,41.7973759,-87.78955479999998,Garfield Ridge
319028,1338 WEST FULTON STREET,41.8871523,-87.660386,West Loop
557946,9141 SOUTH WILLIAMS AVENUE,41.7278399,-87.6182123,Roseland
254912,5418 WEST DIVISION STREET,41.9023465,-87.76177609999998,Austin
99741,6353 NORTH MOBILE AVENUE,41.9964925,-87.7850083,Norwood Park
452859,7247 SOUTH SOUTH CHICAGO AVENUE,41.76343060000001,-87.6015821,Grand Crossing
447251,5310 SOUTH DORCHESTER AVENUE,41.79909779999999,-87.592054,Hyde Park
351392,7381 SOUTH CICERO AVENUE,41.7587868,-87.7409407,West Lawn
223996,2630 WEST EVERGREEN AVENUE,41.9059165,-87.69330529999998,Humboldt Park
399158,8229 SOUTH HARPER AVENUE,41.7451177,-87.5867662,Avalon Park
70218,3617 WEST FOSTER AVENUE,41.97541470000001,-87.71917320000001,North Park
454239,362 EAST 59TH STREET,41.7876999,-87.6165439,Washington Park
123079,3252 NORTH LINDER AVENUE,41.940126,-87.7642733,Portage Park
126212,2843 WEST NELSON STREET,41.9364334,-87.699464,Avondale
487039,7800 SOUTH MARQUETTE AVENUE,41.7535104,-87.55877170000002,South Shore
511552,11406 SOUTH THROOP STREET,41.6864481,-87.6546467,Morgan Park
342683,5227 SOUTH MULLIGAN AVENUE,41.7970845,-87.780468,Garfield Ridge
352164,3548 WEST 76TH PLACE,41.7544391,-87.7117593,Ashburn
149822,5253 WEST LELAND AVENUE,41.9654219,-87.7597454,Portage Park
42656,2338 NORTH MOBILE AVENUE,41.9230981,-87.7832705,Belmont Cragin
17984,6947 NORTH ASHLAND BOULEVARD,42.00805820000001,-87.66928929999997,Rogers Park
557003,9000 SOUTH HALSTED STREET,41.7306695,-87.6438557,Auburn Gresham
503673,10435 SOUTH PEORIA STREET,41.7040426,-87.6448776,Washington Heights
273549,1501 NORTH KEYSTONE AVENUE,41.9081863,-87.727425,Humboldt Park
457626,7844 SOUTH DOCTOR MARTIN LUTHER KING JR DRIVE,41.7516333,-87.6153464,Grand Crossing
273326,3220 WEST CORTEZ STREET,41.90031550000001,-87.7076372,Humboldt Park
155984,6257 WEST EASTWOOD AVENUE,41.9645541,-87.7842328,Portage Park
138963,5716 NORTH WEST CIRCLE AVENUE,41.9853102,-87.8043716,Norwood Park
411126,1220 EAST 53RD STREET,41.7999956,-87.5957534,Hyde Park
311366,2373 SOUTH PRAIRIE AVENUE,41.8499696,-87.6203515,Near South Side
63712,1846 NORTH NORMANDY AVENUE,41.9140529,-87.79278470000001,Galewood
384167,7233 SOUTH CAMPBELL AVENUE,41.76186,-87.685349,Chicago Lawn
483236,7656 SOUTH UNION AVENUE,41.7545116,-87.6419986,Auburn Gresham
570112,8809 SOUTH EXCHANGE AVENUE,41.735194,-87.55246,South Chicago
391341,4611 SOUTH ALBANY AVENUE,41.8095953,-87.7013418,Brighton Park
497791,11038 SOUTH ALBANY AVENUE,41.6921165,-87.6987009,Mount Greenwood
16037,6434 NORTH BELL AVENUE,41.99883079999999,-87.686578,West Ridge
310729,1940 SOUTH DESPLAINES STREET,41.8556081,-87.6430064,Lower West Side
160125,715 WEST BITTERSWEET PLACE,41.9555149,-87.6479061,Uptown
532287,1146 WEST 112TH PLACE,41.6896414,-87.6514045,Morgan Park
280367,661 WEST DIVISION STREET,41.9034609,-87.6456579,River North
184130,3648 NORTH WAYNE AVENUE,41.9485571,-87.6631184,Wrigleyville
213388,4926 NORTH WOLCOTT AVENUE,41.9714744,-87.6766202,Lincoln Square
530809,12334 SOUTH YALE AVENUE,41.6695125,-87.62868590000002,West Pullman
138541,5837 WEST WAVELAND AVENUE,41.9474162,-87.7731688,Portage Park
77163,6049 WEST SEMINOLE STREET,41.9845969,-87.7800004,Norwood Park
206546,1132 WEST ROSCOE STREET,41.9436921,-87.6579853,Lake View
97055,3936 WEST LAWRENCE AVENUE,41.968533,-87.7270087,Albany Park
491728,11143 SOUTH ALBANY AVENUE,41.6903463,-87.69808940000001,Mount Greenwood
344820,6001 SOUTH MONITOR AVENUE,41.7833057,-87.7677531,Clearing
337517,4531 SOUTH RICHMOND STREET,41.81091729999999,-87.6977271,Brighton Park
460301,8129 SOUTH SANGAMON STREET,41.74604650000001,-87.6472608,Auburn Gresham
359867,6519 SOUTH KEDVALE AVENUE,41.7743459,-87.7260499,West Lawn
128152,3531 NORTH NORA AVENUE,41.9445166,-87.80176949999998,Dunning
383891,3751 WEST 63RD STREET,41.77854960000001,-87.7174398,West Lawn
168392,1664 NORTH VINE STREET,41.9127456,-87.64472629999999,Old Town
100141,2153 NORTH LOCKWOOD AVENUE,41.920134,-87.7581903,Belmont Cragin
565097,111 EAST 95TH STREET,41.721526,-87.61996490000001,Roseland
34918,3039 WEST BELLE PLAINE AVENUE,41.9556156,-87.7047094,Irving Park
548493,9341 SOUTH HAMILTON AVENUE,41.7235782,-87.6756381,Beverly
272916,1217 SOUTH AVERS AVENUE,41.8656365,-87.72121170000001,North Lawndale
92556,4246 NORTH MASON AVENUE,41.9580815,-87.7759868,Portage Park
381415,8040 SOUTH CALIFORNIA AVENUE,41.7468283,-87.6928359,Ashburn
321394,2249 WEST CULLERTON STREET,41.8546748,-87.6827469,Lower West Side
384757,5159 SOUTH HARDING AVENUE,41.7988633,-87.7218054,West Elsdon
142510,4915 NORTH LINCOLN AVENUE,41.9712637,-87.68993909999998,Lincoln Square
480958,4847 SOUTH FORRESTVILLE AVENUE,41.8062726,-87.6123047,Grand Boulevard
88657,6328 NORTH LINCOLN AVENUE,41.9961981,-87.71741829999998,North Park
309630,1247 NORTH STATE PARKWAY,41.9053673,-87.6284637,Gold Coast
277050,1555 NORTH DEARBORN PARKWAY,41.9110402,-87.62980479999997,Gold Coast
483089,4547 SOUTH VINCENNES AVENUE,41.8117173,-87.6136578,Grand Boulevard
452650,5700 SOUTH WOODLAWN AVENUE,41.7913279,-87.5968426,Hyde Park
69032,4873 WEST ARMITAGE AVENUE,41.9166338,-87.7489078,Belmont Cragin
96011,5126 NORTH MILWAUKEE AVENUE,41.97337329999999,-87.7661303,Jefferson Park
539264,9213 SOUTH WENTWORTH AVENUE,41.7267164,-87.6285332,Roseland
376787,5754 SOUTH MOODY AVENUE,41.7872106,-87.77579329999998,Garfield Ridge
513819,12120 SOUTH PERRY AVENUE,41.67365820000001,-87.62518270000002,West Pullman
462976,1418 WEST 49TH PLACE,41.804301,-87.660799,New City
371291,2754 WEST 63RD STREET,41.779471,-87.69311,Chicago Lawn
425723,6344 SOUTH VERNON AVENUE,41.7789234,-87.61467040000002,Woodlawn
164173,2409 NORTH ASHLAND AVENUE,41.925479,-87.6679176,Lincoln Park
390781,5325 SOUTH LOCKWOOD AVENUE,41.7960613,-87.7548298,Garfield Ridge
241532,3830 WEST GRAND AVENUE,41.9048601,-87.7224651,Humboldt Park
46822,1952 NORTH PULASKI ROAD,41.9169294,-87.72678020000002,Hermosa
229138,210 NORTH LEAMINGTON AVENUE,41.8847914,-87.75428079999998,Austin
399142,7939 SOUTH CARPENTER STREET,41.7494102,-87.6497885,Auburn Gresham
37558,5644 NORTH MOODY AVENUE,41.9842514,-87.7818895,Norwood Park
102061,6236 NORTH CICERO AVENUE,41.9941098,-87.7486157,"Sauganash,Forest Glen"
52322,3626 NORTH NEVA AVENUE,41.94614960000001,-87.806086,Dunning
216048,1139 NORTH MOZART STREET,41.9022262,-87.6978573,Humboldt Park
355034,5404 SOUTH CHRISTIANA AVENUE,41.7950404,-87.7074979,Gage Park
516019,11711 SOUTH CHURCH STREET,41.6807269,-87.67101679999998,Morgan Park
430076,8630 SOUTH BENNETT AVENUE,41.7378802,-87.578455,Avalon Park
13481,2107 WEST BIRCHWOOD AVENUE,42.0177308,-87.6833946,Rogers Park
483093,6915 SOUTH BISHOP STREET,41.7680975,-87.6600219,Englewood
441736,8057 SOUTH HONORE STREET,41.7467942,-87.66907640000002,Auburn Gresham
10633,2537 WEST COYLE AVENUE,42.0074646,-87.6940174,West Ridge
81306,5142 WEST HUTCHINSON STREET,41.9580891,-87.7565642,Portage Park
294678,19 SOUTH OAKLEY BOULEVARD,41.8805719,-87.68369090000002,United Center
394999,6106 SOUTH ROCKWELL STREET,41.7825372,-87.6888997,Chicago Lawn
29107,3443 NORTH PACIFIC AVENUE,41.9424026,-87.82622629999999,Dunning
238016,5323 WEST FERDINAND STREET,41.888688,-87.75880649999998,Austin
449506,5527 SOUTH DORCHESTER AVENUE,41.7943344,-87.5914003,Hyde Park
457177,7934 SOUTH PRAIRIE AVENUE,41.7500198,-87.6184884,Chatham
196553,5332 NORTH DAMEN AVENUE,41.9789896,-87.6798699,Lincoln Square
547235,10342 SOUTH HALSTED STREET,41.7055936,-87.6432295,Washington Heights
33889,8300 WEST SUMMERDALE AVENUE,41.9767134,-87.8336863,Norwood Park
537856,8923 SOUTH ASHLAND AVENUE,41.7314664,-87.6626986,Washington Heights
198456,1648 NORTH LARRABEE STREET,41.9126887,-87.6437735,Old Town
359029,5457 SOUTH LOCKWOOD AVENUE,41.79307,-87.75480379999998,Garfield Ridge
432223,4821 SOUTH CHAMPLAIN AVENUE,41.806988200000006,-87.6098325,Grand Boulevard
418846,7817 SOUTH LUELLA AVENUE,41.7526536,-87.5696314,South Shore
569088,10650 SOUTH GREEN BAY AVENUE,41.7012716,-87.5416282,East Side
495524,11643 SOUTH CENTRAL PARK AVENUE,41.6810571,-87.7099272,Mount Greenwood
191207,4618 NORTH BEACON STREET,41.96588970000001,-87.6642755,Uptown
543515,706 WEST 116TH PLACE,41.6831311,-87.6399952,West Pullman
79872,5435 NORTH LOTUS AVENUE,41.9803901,-87.7644507,Jefferson Park
92364,4716 WEST PARKER AVENUE,41.9308097,-87.7448988,Belmont Cragin
111173,2621 WEST LELAND AVENUE,41.9664945,-87.6946681,Lincoln Square
42380,5010 WEST ADDISON STREET,41.9462499,-87.7526112,Portage Park
235160,3016 SOUTH KEELER AVENUE,41.838068,-87.7295147,Little Village
817,7446 NORTH OKETO AVENUE,42.0166518,-87.8117436,Edison Park
57815,5024 NORTH KILDARE AVENUE,41.9725896,-87.735867,Albany Park
431996,6550 SOUTH BISHOP STREET,41.7743943,-87.6606952,Englewood
332111,3059 WEST POPE JOHN PAUL II DRIVE,41.815248,-87.701593,Brighton Park
287287,3148 SOUTH ARCHER AVENUE,41.8369883,-87.66731949999998,Mckinley Park
481135,7241 SOUTH UNION AVENUE,41.7622159,-87.6411171,Englewood
538236,9914 SOUTH SANGAMON STREET,41.7136563,-87.6469255,Washington Heights
349411,6115 SOUTH MCVICKER AVENUE,41.78104520000001,-87.772554,Clearing
65926,4824 WEST DRUMMOND PLACE,41.928997,-87.7476198,Belmont Cragin
560223,13238 SOUTH ELLIS AVENUE,41.6546536,-87.5975096,Riverdale
178405,842 WEST GUNNISON STREET,41.9702893,-87.65187370000002,Uptown
332619,7239 SOUTH MAPLEWOOD AVENUE,41.76167570000001,-87.68635570000002,Chicago Lawn
